site_id,site_name,longitude,latitude,kecamatan,MICRO_CLUSTER,CLUSTER,SALES_AREA,AREA,Population Covered,Revenue,Sec 1 Azimuth,Sec 2 Azimuth,Sec 3 Azimuth
14KBM001,GOMBONG,109.516,-7.61025,GOMBONG,MC-KEBUMEN,CW-CJA-PURWOBAMEN,BANJARNEGARA,CENTRAL JAVA,"  18,714 ","  89,840,962 ",120,270,340
14KBM002,KEBUMEN,109.64,-7.66857,PEJAGOAN,MC-KEBUMEN,CW-CJA-PURWOBAMEN,BANJARNEGARA,CENTRAL JAVA,"  12,025 ","  104,381,907 ",30,145,260
14KBM003,KUTOWINANGUN,109.737,-7.71744,KUTOWINANGUN,MC-KEBUMEN,CW-CJA-PURWOBAMEN,BANJARNEGARA,CENTRAL JAVA,"  19,904 ","  136,539,911 ",30,120,240
14KBM004,PREMBUN,109.802,-7.72183,PREMBUN,MC-KEBUMEN,CW-CJA-PURWOBAMEN,BANJARNEGARA,CENTRAL JAVA,"  14,873 ","  112,167,015 ",60,160,260
14KBM005,KARANGANYARKBM_TB,109.575,-7.63822,KARANGANYAR,MC-KEBUMEN,CW-CJA-PURWOBAMEN,BANJARNEGARA,CENTRAL JAVA,"  15,815 ","  62,631,993 ",60,245,335
14KBM006,PANJER_KBM,109.661,-7.67932,KEBUMEN,MC-KEBUMEN,CW-CJA-PURWOBAMEN,BANJARNEGARA,CENTRAL JAVA,"  7,870 ","  112,651,130 ",60,180,300
14KBM007,KEBUMENTIMUR_TB,109.689,-7.6925,KEBUMEN,MC-KEBUMEN,CW-CJA-PURWOBAMEN,BANJARNEGARA,CENTRAL JAVA,"  30,657 ","  81,325,797 ",100,220,285
14KBM008,GOMBONGBARAT,109.494,-7.60969,SEMPOR,MC-KEBUMEN,CW-CJA-PURWOBAMEN,BANJARNEGARA,CENTRAL JAVA,"  11,769 ","  88,861,625 ",60,160,270
14KBM009,AYAH_TB,109.388,-7.71617,AYAH,MC-KEBUMEN,CW-CJA-PURWOBAMEN,BANJARNEGARA,CENTRAL JAVA,"  23,738 ","  103,101,779 ",0,100,320
14KBM010,PETANAHANIT_TB,109.586,-7.74516,PETANAHAN,MC-KEBUMEN,CW-CJA-PURWOBAMEN,BANJARNEGARA,CENTRAL JAVA,"  49,324 ","  106,996,749 ",0,105,260
14KBM011,KEWARASAN_TB,109.509,-7.64644,KUWARASAN,MC-KEBUMEN,CW-CJA-PURWOBAMEN,BANJARNEGARA,CENTRAL JAVA,"  48,784 ","  55,095,785 ",0,100,180
14KBM012,KARANGBOLONG_TB,109.45197,-7.75896,AYAH,MC-KEBUMEN,CW-CJA-PURWOBAMEN,BANJARNEGARA,CENTRAL JAVA,"  24,821 ","  96,268,941 ",40,255,340
14KBM013,AMBAL_TB,109.719,-7.78581,AMBAL,MC-KEBUMEN,CW-CJA-PURWOBAMEN,BANJARNEGARA,CENTRAL JAVA,"  26,918 ","  108,709,539 ",15,100,285
14KBM014,MIRIT_TB,109.776,-7.79983,MIRIT,MC-KEBUMEN,CW-CJA-PURWOBAMEN,BANJARNEGARA,CENTRAL JAVA,"  36,505 ","  106,176,244 ",0,90,280
14KBM015,KARANGGAYAM_TB,109.58,-7.5887,KARANGGAYAM,MC-KEBUMEN,CW-CJA-PURWOBAMEN,BANJARNEGARA,CENTRAL JAVA,"  23,523 ","  113,478,038 ",0,160,260
14KBM016,KARANGSAMBUNG,109.67647,-7.598,KARANGSAMBUNG,MC-KEBUMEN,CW-CJA-PURWOBAMEN,BANJARNEGARA,CENTRAL JAVA,"  15,311 ","  133,153,838 ",0,80,200
14KBM017,DEMANGSARI,109.405,-7.659,AYAH,MC-KEBUMEN,CW-CJA-PURWOBAMEN,BANJARNEGARA,CENTRAL JAVA,"  18,065 ","  79,230,015 ",45,195,290
14KBM020,KEBUMEN_TIMUR_IB,109.665795,-7.668847,KEBUMEN,MC-KEBUMEN,CW-CJA-PURWOBAMEN,BANJARNEGARA,CENTRAL JAVA,"  3,666 ","  28,586,666 ",10,170,275
14KBM021,MULYOSARI_MT,109.791,-7.69472,PREMBUN,MC-KEBUMEN,CW-CJA-PURWOBAMEN,BANJARNEGARA,CENTRAL JAVA,"  16,426 ","  109,224,703 ",5,170,295
14KBM022,GRENGGENG_MT,109.536,-7.61029,GOMBONG,MC-KEBUMEN,CW-CJA-PURWOBAMEN,BANJARNEGARA,CENTRAL JAVA,"  13,479 ","  70,995,171 ",130,190,280
14KBM023,MUKTISARI_RT,109.662,-7.70525,KEBUMEN,MC-KEBUMEN,CW-CJA-PURWOBAMEN,BANJARNEGARA,CENTRAL JAVA,"  11,418 ","  82,583,744 ",35,190,330
14KBM024,SINUNGREJO_RT,109.744,-7.75156,AMBAL,MC-KEBUMEN,CW-CJA-PURWOBAMEN,BANJARNEGARA,CENTRAL JAVA,"  13,554 ","  69,988,274 ",5,115,245
14KBM025,PETANAHAN_PURING_RT,109.547,-7.74353,PURING,MC-KEBUMEN,CW-CJA-PURWOBAMEN,BANJARNEGARA,CENTRAL JAVA,"  31,194 ","  51,056,015 ",10,100,280
14KBM026,SRANDIL_PL,109.671,-7.66778,KEBUMEN,MC-KEBUMEN,CW-CJA-PURWOBAMEN,BANJARNEGARA,CENTRAL JAVA,"  7,576 ","  41,495,266 ",25,175,285
14KBM027,KEDAWUN_PL,109.65,-7.67845,PEJAGOAN,MC-KEBUMEN,CW-CJA-PURWOBAMEN,BANJARNEGARA,CENTRAL JAVA,"  4,106 ","  50,545,802 ",0,70,220
14KBM028,ROWOKELE_TB,109.447,-7.60245,ROWOKELE,MC-KEBUMEN,CW-CJA-PURWOBAMEN,BANJARNEGARA,CENTRAL JAVA,"  23,648 ","  97,269,670 ",100,220,280
14KBM029,SRUWENG,109.61349,-7.66559,SRUWENG,MC-KEBUMEN,CW-CJA-PURWOBAMEN,BANJARNEGARA,CENTRAL JAVA,"  17,318 ","  71,528,210 ",100,160,310
14KBM030,BULUSPSNTREN_TB,109.66811,-7.77225,BULUSPESANTREN,MC-KEBUMEN,CW-CJA-PURWOBAMEN,BANJARNEGARA,CENTRAL JAVA,"  41,279 ","  77,794,835 ",30,90,330
14KBM031,SADANG_TB,109.676,-7.54496,KARANGSAMBUNG,MC-KEBUMEN,CW-CJA-PURWOBAMEN,BANJARNEGARA,CENTRAL JAVA,"  32,699 ","  99,196,607 ",150,210,270
14KBM032,ADIMULYA,109.586,-7.69416,PETANAHAN,MC-KEBUMEN,CW-CJA-PURWOBAMEN,BANJARNEGARA,CENTRAL JAVA,"  25,305 ","  67,525,905 ",0,90,180
14KBM033,PADURESO,109.79300,-7.61388,PADURESO,MC-KEBUMEN,CW-CJA-PURWOBAMEN,BANJARNEGARA,CENTRAL JAVA,"  26,612 ","  94,136,060 ",10,190,260
14KBM034,ALIAN_TB,109.70905,-7.6339,ALIAN,MC-KEBUMEN,CW-CJA-PURWOBAMEN,BANJARNEGARA,CENTRAL JAVA,"  17,691 ","  85,013,245 ",0,115,240
14KBM036,BUMIREJO_TB,109.66281,-7.65922,KEBUMEN,MC-KEBUMEN,CW-CJA-PURWOBAMEN,BANJARNEGARA,CENTRAL JAVA,"  16,177 ","  69,706,735 ",60,120,240
14KBM037,KEBUMENSLT_TB,109.63943,-7.68396,PEJAGOAN,MC-KEBUMEN,CW-CJA-PURWOBAMEN,BANJARNEGARA,CENTRAL JAVA,"  17,399 ","  64,939,094 ",20,140,240
14KBM038,SEMPOR_XL,109.498,-7.5869,SEMPOR,MC-KEBUMEN,CW-CJA-PURWOBAMEN,BANJARNEGARA,CENTRAL JAVA,"  38,563 ","  77,850,570 ",60,150,320
14KBM039,KLIRONG_TB,109.621,-7.73873,KLIRONG,MC-KEBUMEN,CW-CJA-PURWOBAMEN,BANJARNEGARA,CENTRAL JAVA,"  36,351 ","  85,089,356 ",20,60,240
14KBM041,BONOROWO_TB,109.808,-7.75801,BONOROWO,MC-KEBUMEN,CW-CJA-PURWOBAMEN,BANJARNEGARA,CENTRAL JAVA,"  29,202 ","  99,919,351 ",0,90,270
14KBM042,ARGOPENI_MT,109.404,-7.7461,AYAH,MC-KEBUMEN,CW-CJA-PURWOBAMEN,BANJARNEGARA,CENTRAL JAVA,"  18,700 ","  99,563,410 ",20,130,350
14KBM043,BUAYAN_TB,109.486,-7.6915,BUAYAN,MC-KEBUMEN,CW-CJA-PURWOBAMEN,BANJARNEGARA,CENTRAL JAVA,"  27,334 ","  61,970,204 ",0,90,200
14KBM044,PONCOWARNO_ST,109.7458,-7.6786,PONCOWARNO,MC-KEBUMEN,CW-CJA-PURWOBAMEN,BANJARNEGARA,CENTRAL JAVA,"  18,780 ","  125,585,832 ",15,190,290
14KBM049,BANDUNGSRUNI_MT,109.70856,-7.66669,ALIAN,MC-KEBUMEN,CW-CJA-PURWOBAMEN,BANJARNEGARA,CENTRAL JAVA,"  19,023 ","  145,356,046 ",0,90,225
14KBM050,CLAPAR_TB,109.608,-7.5573,KARANGGAYAM,MC-KEBUMEN,CW-CJA-PURWOBAMEN,BANJARNEGARA,CENTRAL JAVA,"  39,825 ","  104,991,837 ",90,180,330
14KBM051,JEMUR_MT,109.66,-7.62519,ALIAN,MC-KEBUMEN,CW-CJA-PURWOBAMEN,BANJARNEGARA,CENTRAL JAVA,"  41,106 ","  125,506,698 ",60,210,330
14KBM053,WANAKRAMA_TB,109.747,-7.61694,ALIAN,MC-KEBUMEN,CW-CJA-PURWOBAMEN,BANJARNEGARA,CENTRAL JAVA,"  30,874 ","  88,251,408 ",120,250,330
14KBM054,ADIWARNO_TB,109.475,-7.7271,BUAYAN,MC-KEBUMEN,CW-CJA-PURWOBAMEN,BANJARNEGARA,CENTRAL JAVA,"  30,194 ","  41,979,331 ",0,150,240
14KBM058,TUGU_TB,109.458,-7.6349,BUAYAN,MC-KEBUMEN,CW-CJA-PURWOBAMEN,BANJARNEGARA,CENTRAL JAVA,"  27,569 ","  86,200,061 ",70,190,340
14KBM062,WONOKRIYO_BD,109.506,-7.61074,GOMBONG,MC-KEBUMEN,CW-CJA-PURWOBAMEN,BANJARNEGARA,CENTRAL JAVA,"  9,288 ","  63,676,059 ",45,150,310
14KBM063,JLNASIONAL3_TV,109.565772,-7.62865,KARANGANYAR,MC-KEBUMEN,CW-CJA-PURWOBAMEN,BANJARNEGARA,CENTRAL JAVA,"  16,011 ","  72,919,329 ",105,225,285
14KBM076,GEMEKSEKTI_KBM_PL,109.65139,-7.6575,KEBUMEN,MC-KEBUMEN,CW-CJA-PURWOBAMEN,BANJARNEGARA,CENTRAL JAVA,"  16,657 ","  78,469,378 ",25,200,305
14KBM077,BUMIREJO_KBM_CM,109.65855,-7.66568,KEBUMEN,MC-KEBUMEN,CW-CJA-PURWOBAMEN,BANJARNEGARA,CENTRAL JAVA,"  5,595 ","  81,210,941 ",70,200,270
14KBM078,TMNWINANGUN_KBM_PL,109.6627,-7.69243,KEBUMEN,MC-KEBUMEN,CW-CJA-PURWOBAMEN,BANJARNEGARA,CENTRAL JAVA,"  13,135 ","  50,720,091 ",90,230,300
14KBM082,PEKUNDEN_KBM_TB,109.71284,-7.70472,KUTOWINANGUN,MC-KEBUMEN,CW-CJA-PURWOBAMEN,BANJARNEGARA,CENTRAL JAVA,"  33,072 ","  82,651,877 ",130,240,300
14KBM083,UNGARAN_KBM_MT,109.76283,-7.71079,KUTOWINANGUN,MC-KEBUMEN,CW-CJA-PURWOBAMEN,BANJARNEGARA,CENTRAL JAVA,"  23,706 ","  76,363,112 ",15,110,240
14KBM085,PEJAGOAN_KBM_TB,109.71223,-7.58831,KARANGSAMBUNG,MC-KEBUMEN,CW-CJA-PURWOBAMEN,BANJARNEGARA,CENTRAL JAVA,  -   ,"  61,916,460 ",50,135,200
14KBM087,JELARANG_KBM_TB,109.67474,-7.64794,ALIAN,MC-KEBUMEN,CW-CJA-PURWOBAMEN,BANJARNEGARA,CENTRAL JAVA,  -   ,"  44,513,925 ",80,250,325
14KBM088,KEPEL_KBM_TB,109.58534,-7.62687,KARANGANYAR,MC-KEBUMEN,CW-CJA-PURWOBAMEN,BANJARNEGARA,CENTRAL JAVA,  -   ,"  72,183,689 ",110,240,320
14KBM089,WONOSIGRO_KBM_PT,109.523,-7.59202,GOMBONG,MC-KEBUMEN,CW-CJA-PURWOBAMEN,BANJARNEGARA,CENTRAL JAVA,  -   ,"  64,215,750 ",115,220,305
14KBM090,NGENTAK_KBM_MT,109.62898,-7.70618,KLIRONG,MC-KEBUMEN,CW-CJA-PURWOBAMEN,BANJARNEGARA,CENTRAL JAVA,  -   ,"  60,186,740 ",30,160,270
14KBM091,KENDALGROWONG_KBM_PL,109.50986,-7.61694,GOMBONG,MC-KEBUMEN,CW-CJA-PURWOBAMEN,BANJARNEGARA,CENTRAL JAVA,  -   ,"  62,057,705 ",100,175,250
14KBM092,EMPRAK_KBM_PL,109.49021,-7.6297,KUWARASAN,MC-KEBUMEN,CW-CJA-PURWOBAMEN,BANJARNEGARA,CENTRAL JAVA,  -   ,"  45,475,879 ",90,155,340
14KBM093,GANDUSARI_KBM_TB,109.60036,-7.67953,SRUWENG,MC-KEBUMEN,CW-CJA-PURWOBAMEN,BANJARNEGARA,CENTRAL JAVA,  -   ,"  34,375,133 ",25,135,200
14KBM094,BALUNG_KULON_KBM_CM,109.567222,-7.753056,PETANAHAN,MC-KEBUMEN,CW-CJA-PURWOBAMEN,BANJARNEGARA,CENTRAL JAVA,  -   ,"  96,581,279 ",35,120,265
14KBM095,SIDOMORO_KBM_TB,109.67764,-7.71553,BULUSPESANTREN,MC-KEBUMEN,CW-CJA-PURWOBAMEN,BANJARNEGARA,CENTRAL JAVA,  -   ,"  50,592,460 ",25,90,165
14KBM096,PANDAIAN_KBM_TB,109.61427,-7.75395,PETANAHAN,MC-KEBUMEN,CW-CJA-PURWOBAMEN,BANJARNEGARA,CENTRAL JAVA,  -   ,"  69,467,508 ",80,220,290
14KBM097,ROWUNGUDESA_KBM_MT,109.43401,-7.63637,ROWOKELE,MC-KEBUMEN,CW-CJA-PURWOBAMEN,BANJARNEGARA,CENTRAL JAVA,  -   ,"  35,307,507 ",55,160,300
14KBM098,LEGOKLOR_KBM_CM,109.651021,-7.672307,PEJAGOAN,MC-KEBUMEN,CW-CJA-PURWOBAMEN,BANJARNEGARA,CENTRAL JAVA,  -   ,"  60,511,553 ",100,235,335
14KBM099,BLANGKUNANG_KBM_TB,109.42491,-7.66767,AYAH,MC-KEBUMEN,CW-CJA-PURWOBAMEN,BANJARNEGARA,CENTRAL JAVA,  -   ,"  30,175,279 ",50,115,280
14KBM100,TAMBAKMULYO_KBM_MT,109.48779,-7.75004,PURING,MC-KEBUMEN,CW-CJA-PURWOBAMEN,BANJARNEGARA,CENTRAL JAVA,  -   ,"  30,158,141 ",0,105,240
14KBM101,KLEGENREJO_KBM_PL,109.64064,-7.74499,KLIRONG,MC-KEBUMEN,CW-CJA-PURWOBAMEN,BANJARNEGARA,CENTRAL JAVA,  -   ,"  24,682,357 ",45,150,285
14KBM102,PODOLUHUR_KBM_PS,109.69298,-7.77971,BULUSPESANTREN,MC-KEBUMEN,CW-CJA-PURWOBAMEN,BANJARNEGARA,CENTRAL JAVA,  -   ,"  36,725,148 ",70,275,350
14KBM103,PURBOWANGI_KBM_TB,109.53334,-7.75353,PURING,MC-KEBUMEN,CW-CJA-PURWOBAMEN,BANJARNEGARA,CENTRAL JAVA,  -   ,"  33,157,528 ",80,230,300
14KBM104,KUWARASAN_KBM_IB,109.509,-7.66824,KUWARASAN,MC-KEBUMEN,CW-CJA-PURWOBAMEN,BANJARNEGARA,CENTRAL JAVA,  -   ,"  60,343,972 ",40,185,310
14KBM105,KWARISAN_KBM_PL,109.67115,-7.68085,KEBUMEN,MC-KEBUMEN,CW-CJA-PURWOBAMEN,BANJARNEGARA,CENTRAL JAVA,  -   ,"  70,276,160 ",45,125,260
14KBM106,ADIKARSO_KBM_ST,109.69668,-7.683,KEBUMEN,MC-KEBUMEN,CW-CJA-PURWOBAMEN,BANJARNEGARA,CENTRAL JAVA,  -   ,"  24,613,376 ",90,170,265
14KBM107,WIROMARTAN_KBM_MT,109.80688,-7.80373,MIRIT,MC-KEBUMEN,CW-CJA-PURWOBAMEN,BANJARNEGARA,CENTRAL JAVA,  -   ,"  62,725,796 ",90,180,290
14KBM108,PLEMPUKANKEMBARAN_KBM_PL,109.74809,-7.79232,AMBAL,MC-KEBUMEN,CW-CJA-PURWOBAMEN,BANJARNEGARA,CENTRAL JAVA,  -   ,"  54,674,773 ",45,110,300
14KBM109,KRECENG_KBM_ST,109.62265,-7.63567,SRUWENG,MC-KEBUMEN,CW-CJA-PURWOBAMEN,BANJARNEGARA,CENTRAL JAVA,  -   ,"  76,883,291 ",195,270,355
14KBM110,WERGONAYAN_KBM_MT,109.78771,-7.77472,MIRIT,MC-KEBUMEN,CW-CJA-PURWOBAMEN,BANJARNEGARA,CENTRAL JAVA,  -   ,"  54,636,033 ",90,190,345
14KBM111,KALIBANGKANG_KBM_TB,109.39442,-7.68888,AYAH,MC-KEBUMEN,CW-CJA-PURWOBAMEN,BANJARNEGARA,CENTRAL JAVA,  -   ,"  41,262,955 ",0,150,240
14KBM112,BONJOKLOR_KBM_IB,109.802582,-7.740444,BONOROWO,MC-KEBUMEN,CW-CJA-PURWOBAMEN,BANJARNEGARA,CENTRAL JAVA,  -   ,"  87,146,755 ",90,220,300
14KBM113,ALFATH_KBM_PL,109.4632,-7.60653,ROWOKELE,MC-KEBUMEN,CW-CJA-PURWOBAMEN,BANJARNEGARA,CENTRAL JAVA,  -   ,"  50,428,822 ",20,100,200
14KBM114,SEKARTEJA_KBM_CM,109.559312,-7.653053,ADIMULYO,MC-KEBUMEN,CW-CJA-PURWOBAMEN,BANJARNEGARA,CENTRAL JAVA,  -   ,"  31,658,520 ",100,205,280
14KBM116,KARANGGEDANG_KBM_MT,109.58786,-7.65122,SRUWENG,MC-KEBUMEN,CW-CJA-PURWOBAMEN,BANJARNEGARA,CENTRAL JAVA,  -   ,"  27,292,817 ",45,110,195
14KBM117,TUNGGALROSO_KBM_TB,109.78951,-7.71081,PREMBUN,MC-KEBUMEN,CW-CJA-PURWOBAMEN,BANJARNEGARA,CENTRAL JAVA,  -   ,"  40,424,955 ",0,80,165
14KBM118,JABRES_KBM_ST,109.62188,-7.67075,SRUWENG,MC-KEBUMEN,CW-CJA-PURWOBAMEN,BANJARNEGARA,CENTRAL JAVA,  -   ,"  86,110,338 ",70,160,250
14KBM119,KARANGTEJA_KBM_TB,109.49818,-7.73818,PURING,MC-KEBUMEN,CW-CJA-PURWOBAMEN,BANJARNEGARA,CENTRAL JAVA,  -   ,"  49,087,141 ",65,130,350
14KBM120,RANTEREJO_KBM_IB,109.65722,-7.72577,KLIRONG,MC-KEBUMEN,CW-CJA-PURWOBAMEN,BANJARNEGARA,CENTRAL JAVA,  -   ,"  37,417,545 ",35,100,165
14KBM121,_SC_GERAI_KEBUMEN,109.65816,-7.66772,KEBUMEN,MC-KEBUMEN,CW-CJA-PURWOBAMEN,BANJARNEGARA,CENTRAL JAVA,  -   ,"  23,930 ",0,NULL,NULL
14KBM123,KEPUHDUKUH_KBM_MT,109.68999,-7.73931,BULUSPESANTREN,MC-KEBUMEN,CW-CJA-PURWOBAMEN,BANJARNEGARA,CENTRAL JAVA,  -   ,"  16,859,295 ",100,180,355
14KBM124,KEBAKALAN_KBM_TB,109.66269,-7.55798,KARANGGAYAM,MC-KEBUMEN,CW-CJA-PURWOBAMEN,BANJARNEGARA,CENTRAL JAVA,  -   ,"  58,934,410 ",35,100,310
14KBM125,PAGARSURU_KBM_TB,109.68094,-7.61883,ALIAN,MC-KEBUMEN,CW-CJA-PURWOBAMEN,BANJARNEGARA,CENTRAL JAVA,  -   ,"  32,098,697 ",60,135,305
14KBM126,JANGLIKULON_KBM_ST,109.7098,-7.72572,BULUSPESANTREN,MC-KEBUMEN,CW-CJA-PURWOBAMEN,BANJARNEGARA,CENTRAL JAVA,  -   ,"  17,924,450 ",80,180,255
14KBM127,SIDOMULYORAYA_KBM_TB,109.76883,-7.73567,AMBAL,MC-KEBUMEN,CW-CJA-PURWOBAMEN,BANJARNEGARA,CENTRAL JAVA,  -   ,"  18,723,898 ",185,255,345
14KBM128,KALISANA_KBM_MT,109.69543,-7.558501,KARANGSAMBUNG,MC-KEBUMEN,CW-CJA-PURWOBAMEN,BANJARNEGARA,CENTRAL JAVA,  -   ,"  40,088,673 ",110,215,280
14KBM129,KARANGGADUNG_KBM_TB,109.58445,-7.76726,PETANAHAN,MC-KEBUMEN,CW-CJA-PURWOBAMEN,BANJARNEGARA,CENTRAL JAVA,  -   ,"  21,459,437 ",60,280,350
14BJN001,KLAMPOK_BJN,109.432,-7.46075,PURWAREJA KLAMPOK,MC-PURBALINGGA,CW-CJA-PURWOBAMEN,BANJARNEGARA,CENTRAL JAVA,"  13,242 ","  55,504,965 ",0,80,220
14BJN002,BANJARNEGARA,109.697,-7.39608,BANJARNEGARA,MC-PURBALINGGA,CW-CJA-PURWOBAMEN,BANJARNEGARA,CENTRAL JAVA,"  6,922 ","  100,834,264 ",30,140,280
14BJN003,PURWONEGORO,109.566,-7.43061,PURWANEGARA,MC-PURBALINGGA,CW-CJA-PURWOBAMEN,BANJARNEGARA,CENTRAL JAVA,"  13,112 ","  72,039,018 ",40,260,340
14BJN004,MANDIRAJA_TB,109.521,-7.45348,MANDIRAJA,MC-PURBALINGGA,CW-CJA-PURWOBAMEN,BANJARNEGARA,CENTRAL JAVA,"  16,497 ","  126,256,083 ",50,150,240
14BJN005,DIENG_TB,109.898,-7.20539,BATUR,MC-PURBALINGGA,CW-CJA-PURWOBAMEN,BANJARNEGARA,CENTRAL JAVA,"  7,842 ","  43,292,963 ",90,300,20
14BJN007,BAWANG,109.651,-7.39922,BAWANG,MC-PURBALINGGA,CW-CJA-PURWOBAMEN,BANJARNEGARA,CENTRAL JAVA,"  20,996 ","  125,030,211 ",0,80,280
14BJN008,BANJARNEGARATM_TB,109.723,-7.39242,BANJARNEGARA,MC-PURBALINGGA,CW-CJA-PURWOBAMEN,BANJARNEGARA,CENTRAL JAVA,"  9,179 ","  93,268,115 ",55,220,340
14BJN009,BATURDIENG_TB,109.826,-7.20572,BATUR,MC-PURBALINGGA,CW-CJA-PURWOBAMEN,BANJARNEGARA,CENTRAL JAVA,"  31,388 ","  129,401,348 ",100,190,290
14BJN010,BANJARMANGU_TB,109.69,-7.35525,BANJARMANGU,MC-PURBALINGGA,CW-CJA-PURWOBAMEN,BANJARNEGARA,CENTRAL JAVA,"  25,304 ","  45,827,821 ",5,160,250
14BJN011,WANADADI,109.628,-7.36678,WANADADI,MC-PURBALINGGA,CW-CJA-PURWOBAMEN,BANJARNEGARA,CENTRAL JAVA,"  19,551 ","  86,795,083 ",60,215,305
14BJN012,KARANGKOBAR,109.738,-7.27106,KARANGKOBAR,MC-PURBALINGGA,CW-CJA-PURWOBAMEN,BANJARNEGARA,CENTRAL JAVA,"  27,420 ","  138,621,075 ",10,110,240
14BJN013,PAGENTAN_TB,109.81,-7.29456,PAGENTAN,MC-PURBALINGGA,CW-CJA-PURWOBAMEN,BANJARNEGARA,CENTRAL JAVA,"  21,560 ","  115,072,725 ",0,90,180
14BJN014,KALIBENING_TB,109.63750,-7.22022,KALIBENING,MC-PURBALINGGA,CW-CJA-PURWOBAMEN,BANJARNEGARA,CENTRAL JAVA,"  32,296 ","  125,037,853 ",60,180,330
14BJN015,KALIWASUH_PS,109.465,-7.45271,PURWAREJA KLAMPOK,MC-PURBALINGGA,CW-CJA-PURWOBAMEN,BANJARNEGARA,CENTRAL JAVA,"  14,875 ","  70,077,844 ",85,240,350
14BJN016,MERDEN_MT,109.541,-7.4694,PURWANEGARA,MC-PURBALINGGA,CW-CJA-PURWOBAMEN,BANJARNEGARA,CENTRAL JAVA,"  24,291 ","  117,878,156 ",50,180,320
14BJN017,BLAMBANGAN_PS,109.62746,-7.39944,BAWANG,MC-PURBALINGGA,CW-CJA-PURWOBAMEN,BANJARNEGARA,CENTRAL JAVA,"  12,491 ","  87,403,216 ",70,170,255
14BJN018,TALUNAMBA_PS,109.751,-7.37919,MADUKARA,MC-PURBALINGGA,CW-CJA-PURWOBAMEN,BANJARNEGARA,CENTRAL JAVA,"  14,035 ","  57,495,068 ",110,210,275
14BJN019,PINGIT_PS,109.527,-7.41858,RAKIT,MC-PURBALINGGA,CW-CJA-PURWOBAMEN,BANJARNEGARA,CENTRAL JAVA,"  18,447 ","  68,143,222 ",75,215,300
14BJN022,KRANDEGAN_CM,109.701,-7.38986,BANJARNEGARA,MC-PURBALINGGA,CW-CJA-PURWOBAMEN,BANJARNEGARA,CENTRAL JAVA,"  6,976 ","  27,243,816 ",100,285,350
14BJN023,ARGASOKA_ST,109.691,-7.39973,BANJARNEGARA,MC-PURBALINGGA,CW-CJA-PURWOBAMEN,BANJARNEGARA,CENTRAL JAVA,"  4,136 ","  35,794,754 ",0,90,230
14BJN024,GAYUNGAN_KEBO_BJN_MT,109.52597,-7.43957,RAKIT,MC-PURBALINGGA,CW-CJA-PURWOBAMEN,BANJARNEGARA,CENTRAL JAVA,  -   ,"  83,110,395 ",25,230,300
14BJN025,WANAYASA_TB,109.75144,-7.24767,WANAYASA,MC-PURBALINGGA,CW-CJA-PURWOBAMEN,BANJARNEGARA,CENTRAL JAVA,"  20,511 ","  109,047,241 ",0,200,300
14BJN026,PUNGGELAN,109.599,-7.34787,PUNGGELAN,MC-PURBALINGGA,CW-CJA-PURWOBAMEN,BANJARNEGARA,CENTRAL JAVA,"  18,936 ","  67,953,950 ",45,150,225
14BJN027,RAKIT_TB,109.57957,-7.3961,RAKIT,MC-PURBALINGGA,CW-CJA-PURWOBAMEN,BANJARNEGARA,CENTRAL JAVA,"  12,857 ","  48,788,717 ",60,190,280
14BJN028,RANDEGANSGLH_TB,109.817,-7.42144,SIGALUH,MC-PURBALINGGA,CW-CJA-PURWOBAMEN,BANJARNEGARA,CENTRAL JAVA,"  15,811 ","  54,204,612 ",0,70,270
14BJN029,PEJAWARAN,109.812,-7.24919,PEJAWARAN,MC-PURBALINGGA,CW-CJA-PURWOBAMEN,BANJARNEGARA,CENTRAL JAVA,"  35,750 ","  102,597,355 ",180,270,340
14BJN030,SUSUKANPWT_TB,109.388,-7.49667,SUSUKAN,MC-PURBALINGGA,CW-CJA-PURWOBAMEN,BANJARNEGARA,CENTRAL JAVA,"  9,418 ","  69,909,139 ",60,240,330
14BJN031,GUMIWANG_TB,109.605,-7.40679,BAWANG,MC-PURBALINGGA,CW-CJA-PURWOBAMEN,BANJARNEGARA,CENTRAL JAVA,"  41,493 ","  84,701,150 ",60,130,245
14BJN032,PAGEDONGAN,109.683,-7.43926,PAGEDONGAN,MC-PURBALINGGA,CW-CJA-PURWOBAMEN,BANJARNEGARA,CENTRAL JAVA,"  10,639 ","  98,919,575 ",60,180,300
14BJN033,ADISARA,109.478,-7.48129,MANDIRAJA,MC-PURBALINGGA,CW-CJA-PURWOBAMEN,BANJARNEGARA,CENTRAL JAVA,"  45,918 ","  91,898,656 ",0,80,280
14BJN034,PANDANARUMBJN_TB,109.601,-7.27328,PANDANARUM,MC-PURBALINGGA,CW-CJA-PURWOBAMEN,BANJARNEGARA,CENTRAL JAVA,"  17,791 ","  79,892,856 ",120,270,330
14BJN037,KALIBOJA,109.627,-7.1952,KALIBENING,MC-PURBALINGGA,CW-CJA-PURWOBAMEN,BANJARNEGARA,CENTRAL JAVA,"  10,708 ","  122,089,181 ",85,180,270
14BJN039,WANADRI_TB,109.60735,-7.4562,BAWANG,MC-PURBALINGGA,CW-CJA-PURWOBAMEN,BANJARNEGARA,CENTRAL JAVA,"  8,681 ","  96,275,145 ",30,210,295
14BJN040,MINDANGAN,109.754,-7.43525,BANJARNEGARA,MC-PURBALINGGA,CW-CJA-PURWOBAMEN,BANJARNEGARA,CENTRAL JAVA,"  35,879 ","  44,453,700 ",70,195,310
14BJN041,SIJERUK_TB,109.712,-7.3278,BANJARMANGU,MC-PURBALINGGA,CW-CJA-PURWOBAMEN,BANJARNEGARA,CENTRAL JAVA,"  17,791 ","  93,936,701 ",0,120,210
14BJN043,POLSUSUKAN_TB,109.416,-7.48769,SUSUKAN,MC-PURBALINGGA,CW-CJA-PURWOBAMEN,BANJARNEGARA,CENTRAL JAVA,"  13,131 ","  70,745,190 ",60,240,300
14BJN044,DANAKERTA_TB,109.55,-7.35583,PUNGGELAN,MC-PURBALINGGA,CW-CJA-PURWOBAMEN,BANJARNEGARA,CENTRAL JAVA,"  15,806 ","  136,507,248 ",90,230,330
14BJN049,MERDEN_BJN_PL,109.52268,-7.47029,MANDIRAJA,MC-PURBALINGGA,CW-CJA-PURWOBAMEN,BANJARNEGARA,CENTRAL JAVA,"  15,704 ","  19,617,909 ",70,220,340
14BJN050,SEMAMPIR_BJN_ST,109.66267,-7.39886,BAWANG,MC-PURBALINGGA,CW-CJA-PURWOBAMEN,BANJARNEGARA,CENTRAL JAVA,"  18,325 ","  42,161,511 ",0,80,240
14BJN051,KUTABJR_BJN_ST,109.68633,-7.39238,BANJARNEGARA,MC-PURBALINGGA,CW-CJA-PURWOBAMEN,BANJARNEGARA,CENTRAL JAVA,"  4,634 ","  21,194,846 ",90,190,330
14BJN052,AMPELSARI_BJN_PL,109.70375,-7.40466,BANJARNEGARA,MC-PURBALINGGA,CW-CJA-PURWOBAMEN,BANJARNEGARA,CENTRAL JAVA,"  30,252 ","  49,276,969 ",0,115,270
14BJN054,PASURENAN_BJN_BM,109.8521,-7.21586,BATUR,MC-PURBALINGGA,CW-CJA-PURWOBAMEN,BANJARNEGARA,CENTRAL JAVA,"  43,665 ","  70,739,457 ",10,120,255
14BJN055,TUNGGARA_BJN_PL,109.82858,-7.42542,SIGALUH,MC-PURBALINGGA,CW-CJA-PURWOBAMEN,BANJARNEGARA,CENTRAL JAVA,"  17,007 ","  63,491,795 ",0,80,165
14BJN056,PAKIKIRAN_BJN_PL,109.37041,-7.50455,SUSUKAN,MC-PURBALINGGA,CW-CJA-PURWOBAMEN,BANJARNEGARA,CENTRAL JAVA,"  41,009 ","  75,034,889 ",50,220,320
14BJN058,KERTAYASA_BJN_PL,109.493933,-7.450464,MANDIRAJA,MC-PURBALINGGA,CW-CJA-PURWOBAMEN,BANJARNEGARA,CENTRAL JAVA,"  10,377 ","  47,193,755 ",100,200,310
14BJN059,DANARAJA_BJN_IB,109.5489,-7.44158,PURWANEGARA,MC-PURBALINGGA,CW-CJA-PURWOBAMEN,BANJARNEGARA,CENTRAL JAVA,"  36,988 ","  72,339,578 ",50,160,240
14BJN064,ADIPASIR_BJN_TB,109.54106,-7.42984,RAKIT,MC-PURBALINGGA,CW-CJA-PURWOBAMEN,BANJARNEGARA,CENTRAL JAVA,  -   ,"  91,054,003 ",55,215,320
14BJN065,MBAH_BOEGEL_BJN_PL,109.68066,-7.4107,BANJARNEGARA,MC-PURBALINGGA,CW-CJA-PURWOBAMEN,BANJARNEGARA,CENTRAL JAVA,  -   ,"  45,065,826 ",5,180,300
14BJN066,TANI_KACA_BJN_LS,109.7163,-7.37945,MADUKARA,MC-PURBALINGGA,CW-CJA-PURWOBAMEN,BANJARNEGARA,CENTRAL JAVA,  -   ,"  61,078,092 ",100,180,270
14BJN068,ALHIKMAH_BJN_MT,109.61263,-7.432341,BAWANG,MC-PURBALINGGA,CW-CJA-PURWOBAMEN,BANJARNEGARA,CENTRAL JAVA,  -   ,"  32,604,215 ",70,140,265
14BJN069,KEBANARAN_BJN_ST,109.488661,-7.488401,MANDIRAJA,MC-PURBALINGGA,CW-CJA-PURWOBAMEN,BANJARNEGARA,CENTRAL JAVA,  -   ,"  51,907,508 ",55,270,350
14BJN070,PARAKANCANGGAH_BJN_PL,109.71097,-7.39306,BANJARNEGARA,MC-PURBALINGGA,CW-CJA-PURWOBAMEN,BANJARNEGARA,CENTRAL JAVA,  -   ,"  48,197,995 ",115,255,335
14BJN071,KENNELO_BJN_PL,109.695,-7.41294,BANJARNEGARA,MC-PURBALINGGA,CW-CJA-PURWOBAMEN,BANJARNEGARA,CENTRAL JAVA,  -   ,"  15,423,672 ",10,90,305
14BJN072,KARANGJAMBE_BJN_PL,109.60886,-7.37319,WANADADI,MC-PURBALINGGA,CW-CJA-PURWOBAMEN,BANJARNEGARA,CENTRAL JAVA,  -   ,"  58,249,702 ",75,250,345
14BJN073,BILUNGAN_BJN_TB,109.45506,-7.47351,PURWAREJA KLAMPOK,MC-PURBALINGGA,CW-CJA-PURWOBAMEN,BANJARNEGARA,CENTRAL JAVA,  -   ,"  63,879,715 ",75,210,310
14BJN074,DOGLEG_BJN_ST,109.66445,-7.36938,WANADADI,MC-PURBALINGGA,CW-CJA-PURWOBAMEN,BANJARNEGARA,CENTRAL JAVA,  -   ,"  39,165,276 ",20,175,295
14BJN075,BANTARMALANG_BJN_PL,109.50711,-7.41261,RAKIT,MC-PURBALINGGA,CW-CJA-PURWOBAMEN,BANJARNEGARA,CENTRAL JAVA,  -   ,"  30,020,342 ",0,120,260
14BJN076,BESARAN_BJN_PL,109.44797,-7.45798,PURWAREJA KLAMPOK,MC-PURBALINGGA,CW-CJA-PURWOBAMEN,BANJARNEGARA,CENTRAL JAVA,  -   ,"  49,123,185 ",90,270,350
14BJN077,KEMRANGGON_BJN_PL,109.38451,-7.48183,SUSUKAN,MC-PURBALINGGA,CW-CJA-PURWOBAMEN,BANJARNEGARA,CENTRAL JAVA,  -   ,  -   ,45,230,330
14BJN078,MANDIRAJAKULON_BJN_PL,109.47659,-7.46694,MANDIRAJA,MC-PURBALINGGA,CW-CJA-PURWOBAMEN,BANJARNEGARA,CENTRAL JAVA,  -   ,"  69,407,301 ",65,135,310
14BJN079,MERTAYASA_BJN_MT,109.59242,-7.42041,PURWANEGARA,MC-PURBALINGGA,CW-CJA-PURWOBAMEN,BANJARNEGARA,CENTRAL JAVA,  -   ,"  32,344,863 ",35,245,310
14BJN080,PANAWAREN_BJN_MT,109.79641,-7.41472,SIGALUH,MC-PURBALINGGA,CW-CJA-PURWOBAMEN,BANJARNEGARA,CENTRAL JAVA,  -   ,"  40,530,495 ",10,90,305
14BJN081,DERMASARI_BJN_PL,109.42824,-7.47131,PURWAREJA KLAMPOK,MC-PURBALINGGA,CW-CJA-PURWOBAMEN,BANJARNEGARA,CENTRAL JAVA,  -   ,"  52,107,996 ",140,210,315
14BJN082,SINGAMERTA_BJN_PL,109.74139,-7.39297,SIGALUH,MC-PURBALINGGA,CW-CJA-PURWOBAMEN,BANJARNEGARA,CENTRAL JAVA,  -   ,"  26,699,975 ",20,85,275
14BJN084,SIMPAT_BJN_ST,109.56559,-7.40539,RAKIT,MC-PURBALINGGA,CW-CJA-PURWOBAMEN,BANJARNEGARA,CENTRAL JAVA,  -   ,"  69,578,885 ",0,120,210
14BJN085,PANGGISARI_BJN_IB,109.4799,-7.44667,MANDIRAJA,MC-PURBALINGGA,CW-CJA-PURWOBAMEN,BANJARNEGARA,CENTRAL JAVA,  -   ,"  59,633,879 ",130,235,350
14BJN086,SITUWANGI_BJN_PL,109.51076,-7.42976,RAKIT,MC-PURBALINGGA,CW-CJA-PURWOBAMEN,BANJARNEGARA,CENTRAL JAVA,  -   ,"  60,914,082 ",80,220,300
14BJN087,BERTA_BJN_PL,109.40144,-7.49399,SUSUKAN,MC-PURBALINGGA,CW-CJA-PURWOBAMEN,BANJARNEGARA,CENTRAL JAVA,  -   ,"  72,397,765 ",65,135,230
14BJN089,PARAKAN_RAYA_BJN_TB,109.57882,-7.44329,PURWANEGARA,MC-PURBALINGGA,CW-CJA-PURWOBAMEN,BANJARNEGARA,CENTRAL JAVA,  -   ,"  36,919,626 ",60,175,270
14BJN090,BONJOK_BJN_TB,109.55535,-7.45306,PURWANEGARA,MC-PURBALINGGA,CW-CJA-PURWOBAMEN,BANJARNEGARA,CENTRAL JAVA,  -   ,"  37,425,908 ",50,210,280
14BJN092,JAMBUER_BJN_MT,109.78096,-7.24733,PEJAWARAN,MC-PURBALINGGA,CW-CJA-PURWOBAMEN,BANJARNEGARA,CENTRAL JAVA,  -   ,"  53,314,258 ",40,180,280
14PBG001,PURBALINGGA,109.376,-7.39383,PURBALINGGA,MC-PURBALINGGA,CW-CJA-PURWOBAMEN,BANJARNEGARA,CENTRAL JAVA,"  14,675 ","  69,218,300 ",60,210,280
14PBG002,BOBOTSARI,109.368,-7.3075,BOBOTSARI,MC-PURBALINGGA,CW-CJA-PURWOBAMEN,BANJARNEGARA,CENTRAL JAVA,"  6,716 ","  146,884,504 ",100,240,340
14PBG003,PURBALINGGABRT,109.353,-7.39589,KALIMANAH,MC-PURBALINGGA,CW-CJA-PURWOBAMEN,BANJARNEGARA,CENTRAL JAVA,"  6,128 ","  141,432,305 ",40,180,280
14PBG004,KOTASARI,109.357,-7.3787,PURBALINGGA,MC-PURBALINGGA,CW-CJA-PURWOBAMEN,BANJARNEGARA,CENTRAL JAVA,"  7,308 ","  92,664,452 ",160,260,40
14PBG005,BUKATEJA,109.433,-7.42872,BUKATEJA,MC-PURBALINGGA,CW-CJA-PURWOBAMEN,BANJARNEGARA,CENTRAL JAVA,"  9,774 ","  109,872,360 ",70,180,280
14PBG006,KEMANGKON_TB,109.393,-7.44706,KEMANGKON,MC-PURBALINGGA,CW-CJA-PURWOBAMEN,BANJARNEGARA,CENTRAL JAVA,"  18,170 ","  110,920,585 ",90,170,290
14PBG007,REMBANGPBLG,109.511,-7.32277,REMBANG,MC-PURBALINGGA,CW-CJA-PURWOBAMEN,BANJARNEGARA,CENTRAL JAVA,"  15,498 ","  163,763,144 ",30,125,210
14PBG008,PADAMARA_TB,109.314,-7.38141,PADAMARA,MC-PURBALINGGA,CW-CJA-PURWOBAMEN,BANJARNEGARA,CENTRAL JAVA,"  11,442 ","  73,230,738 ",10,100,270
14PBG009,GUALAWA,109.29000,-7.22889,KARANGREJA,MC-PURBALINGGA,CW-CJA-PURWOBAMEN,BANJARNEGARA,CENTRAL JAVA,"  42,637 ","  168,652,875 ",40,200,320
14PBG010,KARANGMONCOL,109.461,-7.32144,KARANGMONCOL,MC-PURBALINGGA,CW-CJA-PURWOBAMEN,BANJARNEGARA,CENTRAL JAVA,"  5,227 ","  107,614,493 ",40,180,300
14PBG011,KALIGONDANG_TB,109.43,-7.38208,KALIGONDANG,MC-PURBALINGGA,CW-CJA-PURWOBAMEN,BANJARNEGARA,CENTRAL JAVA,"  15,229 ","  81,665,168 ",60,160,260
14PBG012,MREBET_TB,109.35,-7.34596,BOJONGSARI,MC-PURBALINGGA,CW-CJA-PURWOBAMEN,BANJARNEGARA,CENTRAL JAVA,"  9,293 ","  86,520,835 ",20,150,240
14PBG013,KEJOBONG,109.511,-7.39039,KEJOBONG,MC-PURBALINGGA,CW-CJA-PURWOBAMEN,BANJARNEGARA,CENTRAL JAVA,"  15,849 ","  120,087,629 ",100,200,340
14PBG014,ONJE_LS,109.373,-7.33138,MREBET,MC-PURBALINGGA,CW-CJA-PURWOBAMEN,BANJARNEGARA,CENTRAL JAVA,"  13,452 ","  64,584,240 ",75,190,330
14PBG015,SLINGA_TB,109.374,-7.35793,BOJONGSARI,MC-PURBALINGGA,CW-CJA-PURWOBAMEN,BANJARNEGARA,CENTRAL JAVA,"  18,698 ","  107,779,396 ",80,140,350
14PBG016,KARANGNANGKA_IB,109.35,-7.3247,MREBET,MC-PURBALINGGA,CW-CJA-PURWOBAMEN,BANJARNEGARA,CENTRAL JAVA,"  5,607 ","  53,954,812 ",60,150,300
14PBG017,PANUNGGALAN_PS,109.469,-7.38297,PENGADEGAN,MC-PURBALINGGA,CW-CJA-PURWOBAMEN,BANJARNEGARA,CENTRAL JAVA,"  11,397 ","  71,256,640 ",65,260,345
14PBG018,KARANGJOHO_PS,109.498,-7.37481,PENGADEGAN,MC-PURBALINGGA,CW-CJA-PURWOBAMEN,BANJARNEGARA,CENTRAL JAVA,"  6,562 ","  64,998,022 ",55,160,290
14PBG019,PANUSUPANPBL_PS,109.486,-7.2997,KARANGMONCOL,MC-PURBALINGGA,CW-CJA-PURWOBAMEN,BANJARNEGARA,CENTRAL JAVA,"  2,783 ","  113,131,054 ",55,110,220
14PBG020,MUNJUL_LUHUR_PS,109.326,-7.36764,PADAMARA,MC-PURBALINGGA,CW-CJA-PURWOBAMEN,BANJARNEGARA,CENTRAL JAVA,"  6,963 ","  77,670,299 ",30,120,250
14PBG021,BANDINGAN_TB,109.434,-7.40409,KEJOBONG,MC-PURBALINGGA,CW-CJA-PURWOBAMEN,BANJARNEGARA,CENTRAL JAVA,"  13,778 ","  106,056,546 ",95,200,340
14PBG022,KEDUNG_BENDA_PL,109.366,-7.46675,KEMANGKON,MC-PURBALINGGA,CW-CJA-PURWOBAMEN,BANJARNEGARA,CENTRAL JAVA,"  12,747 ","  94,675,488 ",50,130,260
14PBG023,KEDUNG_WULUH_PS,109.326,-7.40467,KALIMANAH,MC-PURBALINGGA,CW-CJA-PURWOBAMEN,BANJARNEGARA,CENTRAL JAVA,"  16,708 ","  64,200,723 ",75,175,280
14PBG024,KALIMANAH_TB,109.336,-7.42593,KALIMANAH,MC-PURBALINGGA,CW-CJA-PURWOBAMEN,BANJARNEGARA,CENTRAL JAVA,"  18,658 ","  104,924,452 ",10,180,280
14PBG025,KARANGREJA_TB,109.346,-7.22115,KARANGREJA,MC-PURBALINGGA,CW-CJA-PURWOBAMEN,BANJARNEGARA,CENTRAL JAVA,"  11,158 ","  135,040,909 ",90,180,270
14PBG026,KRANYARPBLG,109.414,-7.29977,KARANGANYAR,MC-PURBALINGGA,CW-CJA-PURWOBAMEN,BANJARNEGARA,CENTRAL JAVA,"  29,264 ","  133,752,854 ",20,180,270
14PBG027,MUNJUL,109.318,-7.35042,KUTASARI,MC-PURBALINGGA,CW-CJA-PURWOBAMEN,BANJARNEGARA,CENTRAL JAVA,"  16,797 ","  75,170,668 ",140,245,325
14PBG029,BOJONGPBLG,109.38,-7.4194,KEMANGKON,MC-PURBALINGGA,CW-CJA-PURWOBAMEN,BANJARNEGARA,CENTRAL JAVA,"  15,628 ","  78,561,481 ",80,190,330
14PBG030,KETAWIS_TB,109.48909,-7.4243,BUKATEJA,MC-PURBALINGGA,CW-CJA-PURWOBAMEN,BANJARNEGARA,CENTRAL JAVA,"  25,448 ","  84,517,085 ",95,180,255
14PBG031,PENGADEGAN_TB,109.464,-7.36075,PENGADEGAN,MC-PURBALINGGA,CW-CJA-PURWOBAMEN,BANJARNEGARA,CENTRAL JAVA,"  33,814 ","  110,545,420 ",80,250,300
14PBG032,KERTANEGARA_TB,109.438,-7.31626,KERTANEGARA,MC-PURBALINGGA,CW-CJA-PURWOBAMEN,BANJARNEGARA,CENTRAL JAVA,"  18,030 ","  126,680,027 ",20,190,300
14PBG034,KARANGJAMBU_ST,109.381,-7.2186,KARANGJAMBU,MC-PURBALINGGA,CW-CJA-PURWOBAMEN,BANJARNEGARA,CENTRAL JAVA,"  19,637 ","  102,324,875 ",125,240,330
14PBG036,MENJANGAN_TB,109.374,-7.40854,PURBALINGGA,MC-PURBALINGGA,CW-CJA-PURWOBAMEN,BANJARNEGARA,CENTRAL JAVA,"  12,404 ","  111,398,809 ",80,225,325
14PBG037,GUMIWANGPBG_TB,109.467,-7.4088,KEJOBONG,MC-PURBALINGGA,CW-CJA-PURWOBAMEN,BANJARNEGARA,CENTRAL JAVA,"  12,864 ","  95,976,754 ",30,180,270
14PBG039,PBLNGGASL_TB,109.366,-7.4325,KEMANGKON,MC-PURBALINGGA,CW-CJA-PURWOBAMEN,BANJARNEGARA,CENTRAL JAVA,"  9,574 ","  78,474,343 ",10,150,240
14PBG040,PURBALINGGATIMUR_MT,109.364,-7.38839,PURBALINGGA,MC-PURBALINGGA,CW-CJA-PURWOBAMEN,BANJARNEGARA,CENTRAL JAVA,"  8,282 ","  64,678,829 ",0,180,270
14PBG041,SANGKANAYU_TB,109.317,-7.27106,MREBET,MC-PURBALINGGA,CW-CJA-PURWOBAMEN,BANJARNEGARA,CENTRAL JAVA,"  39,807 ","  50,925,548 ",50,180,320
14PBG044,KRAMAT_TB,109.456,-7.2693,KARANGMONCOL,MC-PURBALINGGA,CW-CJA-PURWOBAMEN,BANJARNEGARA,CENTRAL JAVA,"  34,022 ","  102,242,720 ",90,210,300
14PBG045,SUMAMPIR_TB,109.52,-7.3,REMBANG,MC-PURBALINGGA,CW-CJA-PURWOBAMEN,BANJARNEGARA,CENTRAL JAVA,"  17,390 ","  96,101,369 ",60,150,270
14PBG046,KEMBARANWETAN_PL,109.383,-7.37942,KALIGONDANG,MC-PURBALINGGA,CW-CJA-PURWOBAMEN,BANJARNEGARA,CENTRAL JAVA,"  5,306 ","  89,923,118 ",0,80,220
14PBG047,SANGKARAYU_TB,109.32400,-7.28031,MREBET,MC-PURBALINGGA,CW-CJA-PURWOBAMEN,BANJARNEGARA,CENTRAL JAVA,"  10,896 ","  101,489,167 ",80,210,310
14PBG048,KARANGMYR_PL,109.361,-7.40262,KALIMANAH,MC-PURBALINGGA,CW-CJA-PURWOBAMEN,BANJARNEGARA,CENTRAL JAVA,"  7,074 ","  79,479,615 ",40,140,280
14PBG049,JLTINGKAT_PL,109.353,-7.29874,BOBOTSARI,MC-PURBALINGGA,CW-CJA-PURWOBAMEN,BANJARNEGARA,CENTRAL JAVA,"  8,012 ","  44,001,268 ",30,125,225
14PBG050,BOJANEGARA_ST,109.343,-7.38804,PADAMARA,MC-PURBALINGGA,CW-CJA-PURWOBAMEN,BANJARNEGARA,CENTRAL JAVA,"  11,966 ","  83,951,296 ",95,190,280
14PBG051,SINGONGAH_PL,109.319,-7.31545,BOJONGSARI,MC-PURBALINGGA,CW-CJA-PURWOBAMEN,BANJARNEGARA,CENTRAL JAVA,"  39,271 ","  65,926,313 ",75,150,285
14PBG054,PENARUBAN_PBG_PL,109.35715,-7.38801,PURBALINGGA,MC-PURBALINGGA,CW-CJA-PURWOBAMEN,BANJARNEGARA,CENTRAL JAVA,"  5,610 ","  57,014,575 ",40,140,270
14PBG055,KALAPACUNG_PBG_PL,109.37678,-7.3059,BOBOTSARI,MC-PURBALINGGA,CW-CJA-PURWOBAMEN,BANJARNEGARA,CENTRAL JAVA,"  17,467 ","  72,415,629 ",80,210,320
14PBG057,PEKIRINGAN_PBG_CM,109.46869,-7.32013,KARANGMONCOL,MC-PURBALINGGA,CW-CJA-PURWOBAMEN,BANJARNEGARA,CENTRAL JAVA,"  9,700 ","  79,253,116 ",60,210,320
14PBG058,MAKAM_PBG_ST,109.49799,-7.2971,REMBANG,MC-PURBALINGGA,CW-CJA-PURWOBAMEN,BANJARNEGARA,CENTRAL JAVA,"  31,951 ","  102,119,691 ",115,275,350
14PBG059,KEDUNGJATI_PBG_ST,109.45209,-7.4266,BUKATEJA,MC-PURBALINGGA,CW-CJA-PURWOBAMEN,BANJARNEGARA,CENTRAL JAVA,"  14,133 ","  85,250,307 ",80,150,230
14PBG060,TIMBANG_PBG_TB,109.54052,-7.39567,KEJOBONG,MC-PURBALINGGA,CW-CJA-PURWOBAMEN,BANJARNEGARA,CENTRAL JAVA,"  17,018 ","  71,411,376 ",50,175,270
14PBG061,SELABAYA_PBG_PL,109.34528,-7.40369,KALIMANAH,MC-PURBALINGGA,CW-CJA-PURWOBAMEN,BANJARNEGARA,CENTRAL JAVA,"  7,769 ","  64,871,966 ",85,205,350
14PBG062,TOYAREKA_PBG_BM,109.36496,-7.42306,KEMANGKON,MC-PURBALINGGA,CW-CJA-PURWOBAMEN,BANJARNEGARA,CENTRAL JAVA,"  7,987 ","  83,762,758 ",20,90,155
14PBG063,WIRASANA_PBG_IB,109.3729,-7.37797,PURBALINGGA,MC-PURBALINGGA,CW-CJA-PURWOBAMEN,BANJARNEGARA,CENTRAL JAVA,"  5,962 ","  57,803,765 ",210,260,355
14PBG064,TLAGAYASA_PBG_MT,109.35131,-7.28313,BOBOTSARI,MC-PURBALINGGA,CW-CJA-PURWOBAMEN,BANJARNEGARA,CENTRAL JAVA,"  22,859 ","  91,643,999 ",35,175,300
14PBG065,BROBOT_PBG_PL,109.34972,-7.3701,BOJONGSARI,MC-PURBALINGGA,CW-CJA-PURWOBAMEN,BANJARNEGARA,CENTRAL JAVA,"  5,521 ","  78,998,172 ",0,120,285
14PBG074,KEDOYA_PBG_ST,109.32568,-7.22669,KARANGREJA,MC-PURBALINGGA,CW-CJA-PURWOBAMEN,BANJARNEGARA,CENTRAL JAVA,  -   ,"  98,706,263 ",0,100,270
14PBG077,YUAN_PBG_TB,109.35817,-7.36415,BOJONGSARI,MC-PURBALINGGA,CW-CJA-PURWOBAMEN,BANJARNEGARA,CENTRAL JAVA,  -   ,"  97,002,097 ",75,135,345
14PBG082,CANDIWULAN_PBG_TB,109.30028,-7.33506,KUTASARI,MC-PURBALINGGA,CW-CJA-PURWOBAMEN,BANJARNEGARA,CENTRAL JAVA,  -   ,"  53,640,492 ",75,180,350
14PBG083,WIRASABA_PBG_TB,109.42103,-7.45194,BUKATEJA,MC-PURBALINGGA,CW-CJA-PURWOBAMEN,BANJARNEGARA,CENTRAL JAVA,  -   ,"  55,190,155 ",80,195,290
14PBG084,KALITINGGAR_PBG_MT,109.33089,-7.3828,PADAMARA,MC-PURBALINGGA,CW-CJA-PURWOBAMEN,BANJARNEGARA,CENTRAL JAVA,  -   ,"  76,661,964 ",90,180,320
14PBG085,ANDAL_PBG_ST,109.34089,-7.41518,KALIMANAH,MC-PURBALINGGA,CW-CJA-PURWOBAMEN,BANJARNEGARA,CENTRAL JAVA,  -   ,"  58,867,426 ",80,200,320
14PBG086,BANJARKERTA_PBG_PS,109.4164,-7.27281,KARANGANYAR,MC-PURBALINGGA,CW-CJA-PURWOBAMEN,BANJARNEGARA,CENTRAL JAVA,  -   ,"  49,687,658 ",90,155,350
14PBG087,GRIYATANI_PBG_PL,109.40522,-7.42366,BUKATEJA,MC-PURBALINGGA,CW-CJA-PURWOBAMEN,BANJARNEGARA,CENTRAL JAVA,  -   ,"  60,126,866 ",145,210,290
14PBG088,BALERAKSA_PBG_PL,109.45728,-7.29444,KARANGMONCOL,MC-PURBALINGGA,CW-CJA-PURWOBAMEN,BANJARNEGARA,CENTRAL JAVA,  -   ,"  50,443,085 ",90,180,260
14PBG090,CILOPOT_PBG_PL,109.37655,-7.4511,KEMANGKON,MC-PURBALINGGA,CW-CJA-PURWOBAMEN,BANJARNEGARA,CENTRAL JAVA,  -   ,  -   ,100,220,285
14PBG091,PALUMBUNGAN_WETAN_PBG_PL,109.33794,-7.25459,KARANGREJA,MC-PURBALINGGA,CW-CJA-PURWOBAMEN,BANJARNEGARA,CENTRAL JAVA,  -   ,"  46,554,398 ",145,210,330
14PBG092,PENOLIH_PBG_CM,109.409827,-7.3791,KALIGONDANG,MC-PURBALINGGA,CW-CJA-PURWOBAMEN,BANJARNEGARA,CENTRAL JAVA,  -   ,"  34,057,782 ",80,175,270
14PBG093,SOKASADA_PBG_PL,109.34531,-7.4753,KEMANGKON,MC-PURBALINGGA,CW-CJA-PURWOBAMEN,BANJARNEGARA,CENTRAL JAVA,  -   ,"  74,256,976 ",80,220,290
14PBG094,ANDONGSINAWI_PBG_PL,109.36425,-7.30227,BOBOTSARI,MC-PURBALINGGA,CW-CJA-PURWOBAMEN,BANJARNEGARA,CENTRAL JAVA,  -   ,  -   ,45,115,220
14PBG095,BAJONG_PBG_PL,109.45285,-7.40462,KEJOBONG,MC-PURBALINGGA,CW-CJA-PURWOBAMEN,BANJARNEGARA,CENTRAL JAVA,  -   ,"  54,489,131 ",20,215,280
14PBG096,KARANGBANJAR_PBG_PL,109.33997,-7.35337,BOJONGSARI,MC-PURBALINGGA,CW-CJA-PURWOBAMEN,BANJARNEGARA,CENTRAL JAVA,  -   ,"  34,911,193 ",80,195,260
14PBG097,PRAMEN_PBG_PL,109.3283,-7.3356,KUTASARI,MC-PURBALINGGA,CW-CJA-PURWOBAMEN,BANJARNEGARA,CENTRAL JAVA,  -   ,"  65,613,812 ",130,205,350
14PBG098,PAGUTANLEGOK_PBG_PL,109.35372,-7.33913,BOJONGSARI,MC-PURBALINGGA,CW-CJA-PURWOBAMEN,BANJARNEGARA,CENTRAL JAVA,  -   ,"  71,881,022 ",65,150,310
14PBG099,LAWET_PBG_MT,109.368,-7.391928,PURBALINGGA,MC-PURBALINGGA,CW-CJA-PURWOBAMEN,BANJARNEGARA,CENTRAL JAVA,  -   ,"  80,319,614 ",90,180,340
14PBG100,MANGUNEGARA_PBG_PS,109.36179,-7.3174,MREBET,MC-PURBALINGGA,CW-CJA-PURWOBAMEN,BANJARNEGARA,CENTRAL JAVA,  -   ,"  56,930,935 ",0,115,210
14PBG101,SIDANEGARA_RAYA_PBG_TB,109.4221,-7.3603,KALIGONDANG,MC-PURBALINGGA,CW-CJA-PURWOBAMEN,BANJARNEGARA,CENTRAL JAVA,  -   ,"  38,860,363 ",125,190,260
14PBG102,SDN2PENARUBAN_PBG_PL,109.37521,-7.38759,KALIGONDANG,MC-PURBALINGGA,CW-CJA-PURWOBAMEN,BANJARNEGARA,CENTRAL JAVA,  -   ,"  39,407,778 ",40,215,300
14PBG103,KARANGKLESEM_PBG_TB,109.31389,-7.36152,KUTASARI,MC-PURBALINGGA,CW-CJA-PURWOBAMEN,BANJARNEGARA,CENTRAL JAVA,  -   ,"  48,078,317 ",70,230,310
14PBG104,BEDAGAS_RAYA_PBG_PL,109.503,-7.3604,PENGADEGAN,MC-PURBALINGGA,CW-CJA-PURWOBAMEN,BANJARNEGARA,CENTRAL JAVA,  -   ,"  30,505,424 ",20,125,280
14PBG106,PASUNGGINGAN_PBG_PL,109.47948,-7.38926,PENGADEGAN,MC-PURBALINGGA,CW-CJA-PURWOBAMEN,BANJARNEGARA,CENTRAL JAVA,  -   ,"  37,590,785 ",95,160,260
14PBG107,KETUHU_PBG_MT,109.3654,-7.38348,PURBALINGGA,MC-PURBALINGGA,CW-CJA-PURWOBAMEN,BANJARNEGARA,CENTRAL JAVA,  -   ,  -   ,0,145,260
14PBG108,DESA_PRIGI_PBG_PL,109.31671,-7.37244,PADAMARA,MC-PURBALINGGA,CW-CJA-PURWOBAMEN,BANJARNEGARA,CENTRAL JAVA,  -   ,"  37,466,517 ",160,260,350
14PBG109,KARANG_MALANG_PBG_TB,109.30337,-7.37939,PADAMARA,MC-PURBALINGGA,CW-CJA-PURWOBAMEN,BANJARNEGARA,CENTRAL JAVA,  -   ,"  64,731,275 ",50,130,195
14PBG110,SINDUREJO_PBG_MT,109.44717,-7.38862,KALIGONDANG,MC-PURBALINGGA,CW-CJA-PURWOBAMEN,BANJARNEGARA,CENTRAL JAVA,  -   ,"  48,642,153 ",30,105,220
14PBG111,SUDANI_PBG_TB,109.349,-7.38024,PADAMARA,MC-PURBALINGGA,CW-CJA-PURWOBAMEN,BANJARNEGARA,CENTRAL JAVA,  -   ,"  77,149,530 ",135,240,310
14PWT096,MIPIRAN_PL,109.3,-7.36275,PADAMARA,MC-PURBALINGGA,CW-CJA-PURWOBAMEN,BANJARNEGARA,CENTRAL JAVA,"  10,454 ","  72,773,705 ",75,165,275
14PWR001,KUTOARJO,109.896,-7.73495,KUTOARJO,MC-PURWOREJO,CW-CJA-PURWOBAMEN,BANJARNEGARA,CENTRAL JAVA,"  19,868 ","  92,790,302 ",60,150,300
14PWR002,PURWOREJO,110.003,-7.71267,PURWOREJO,MC-PURWOREJO,CW-CJA-PURWOBAMEN,BANJARNEGARA,CENTRAL JAVA,"  20,215 ","  87,091,694 ",60,160,240
14PWR003,BAGELEN_TB,110.028,-7.87872,BAGELEN,MC-PURWOREJO,CW-CJA-PURWOBAMEN,BANJARNEGARA,CENTRAL JAVA,"  15,051 ","  75,624,480 ",50,120,220
14PWR004,BENER_TB,110.05,-7.64278,BENER,MC-PURWOREJO,CW-CJA-PURWOBAMEN,BANJARNEGARA,CENTRAL JAVA,"  25,959 ","  119,984,601 ",30,180,280
14PWR005,PURWOREJOUTR_TB,110.028,-7.696,LOANO,MC-PURWOREJO,CW-CJA-PURWOBAMEN,BANJARNEGARA,CENTRAL JAVA,"  28,795 ","  88,792,804 ",60,180,270
14PWR006,PURWOREJOBARAT_TB,109.972,-7.7293,BANYU URIP,MC-PURWOREJO,CW-CJA-PURWOBAMEN,BANJARNEGARA,CENTRAL JAVA,"  15,093 ","  91,288,809 ",20,180,270
14PWR007,JENAR,109.996,-7.82247,PURWODADI,MC-PURWOREJO,CW-CJA-PURWOBAMEN,BANJARNEGARA,CENTRAL JAVA,"  10,436 ","  91,914,355 ",30,80,270
14PWR008,BAYAN_TB,109.915,-7.71575,KUTOARJO,MC-PURWOREJO,CW-CJA-PURWOBAMEN,BANJARNEGARA,CENTRAL JAVA,"  21,669 ","  81,530,197 ",80,180,300
14PWR009,PITURUH_TB,109.845,-7.67919,PITURUH,MC-PURWOREJO,CW-CJA-PURWOBAMEN,BANJARNEGARA,CENTRAL JAVA,"  20,995 ","  75,268,036 ",90,180,270
14PWR010,GRABAGPWRJ_TB,109.91,-7.80128,GRABAG,MC-PURWOREJO,CW-CJA-PURWOBAMEN,BANJARNEGARA,CENTRAL JAVA,"  22,955 ","  128,513,521 ",10,120,250
14PWR011,KEMIRIPWR_TB,109.894,-7.68252,KEMIRI,MC-PURWOREJO,CW-CJA-PURWOBAMEN,BANJARNEGARA,CENTRAL JAVA,"  28,373 ","  72,974,182 ",60,160,260
14PWR012,PONGPONGAN,110.008,-7.7608,BANYU URIP,MC-PURWOREJO,CW-CJA-PURWOBAMEN,BANJARNEGARA,CENTRAL JAVA,"  18,076 ","  96,461,000 ",50,180,330
14PWR013,BOTODALEMAN_KN,109.9405,-7.7239,BAYAN,MC-PURWOREJO,CW-CJA-PURWOBAMEN,BANJARNEGARA,CENTRAL JAVA,"  7,694 ","  47,581,203 ",70,210,300
14PWR014,BRINGIN_BAYAN_RT,109.958,-7.70757,BAYAN,MC-PURWOREJO,CW-CJA-PURWOBAMEN,BANJARNEGARA,CENTRAL JAVA,"  9,433 ","  78,965,829 ",20,135,300
14PWR015,BALEDONO_TB,110.022,-7.71313,PURWOREJO,MC-PURWOREJO,CW-CJA-PURWOBAMEN,BANJARNEGARA,CENTRAL JAVA,"  6,906 ","  60,055,805 ",5,145,290
14PWR016,WINGKOMULYO_MT,109.946,-7.79312,NGOMBOL,MC-PURWOREJO,CW-CJA-PURWOBAMEN,BANJARNEGARA,CENTRAL JAVA,"  7,028 ","  70,072,255 ",45,135,320
14PWR017,KRANDENGAN_MT,109.921,-7.75071,BAYAN,MC-PURWOREJO,CW-CJA-PURWOBAMEN,BANJARNEGARA,CENTRAL JAVA,"  13,822 ","  53,280,605 ",90,170,320
14PWR018,PASARWOLO_GRABAG_TB,109.886,-7.82346,GRABAG,MC-PURWOREJO,CW-CJA-PURWOBAMEN,BANJARNEGARA,CENTRAL JAVA,"  6,853 ","  93,314,616 ",35,110,290
14PWR020,SEBOROKRAPYAK_PWR_CM,109.94296,-7.76553,BANYU URIP,MC-PURWOREJO,CW-CJA-PURWOBAMEN,BANJARNEGARA,CENTRAL JAVA,  -   ,"  59,812,837 ",70,215,285
14PWR021,PONCOLAN_PWR_MT,109.89123,-7.747455,KUTOARJO,MC-PURWOREJO,CW-CJA-PURWOBAMEN,BANJARNEGARA,CENTRAL JAVA,  -   ,"  37,473,667 ",110,180,260
14PWR022,GEBANG_REJO_PWR_TB,109.831,-7.72034,BUTUH,MC-PURWOREJO,CW-CJA-PURWOBAMEN,BANJARNEGARA,CENTRAL JAVA,  -   ,"  42,597,775 ",50,180,265
14PWR023,NGOMBOL_TB,109.945,-7.84756,NGOMBOL,MC-PURWOREJO,CW-CJA-PURWOBAMEN,BANJARNEGARA,CENTRAL JAVA,"  18,378 ","  86,376,486 ",10,90,280
14PWR024,BRUNO_TB,109.926,-7.56948,BRUNO,MC-PURWOREJO,CW-CJA-PURWOBAMEN,BANJARNEGARA,CENTRAL JAVA,"  40,327 ","  84,139,572 ",60,180,270
14PWR025,GEBANG_TB,110.011,-7.60986,GEBANG,MC-PURWOREJO,CW-CJA-PURWOBAMEN,BANJARNEGARA,CENTRAL JAVA,"  31,161 ","  88,877,451 ",30,180,270
14PWR026,WINONGPWRJ_TB,109.965,-7.6689,GEBANG,MC-PURWOREJO,CW-CJA-PURWOBAMEN,BANJARNEGARA,CENTRAL JAVA,"  30,422 ","  79,323,287 ",350,130,240
14PWR027,KALIGESING_TB,110.121,-7.71891,KALIGESING,MC-PURWOREJO,CW-CJA-PURWOBAMEN,BANJARNEGARA,CENTRAL JAVA,"  16,412 ","  81,753,215 ",0,110,220
14PWR028,CANGKREP_TB,110.03,-7.73174,PURWOREJO,MC-PURWOREJO,CW-CJA-PURWOBAMEN,BANJARNEGARA,CENTRAL JAVA,"  28,156 ","  59,918,177 ",20,160,270
14PWR029,BANYUASIN_TB,110.10019,-7.66759,LOANO,MC-PURWOREJO,CW-CJA-PURWOBAMEN,BANJARNEGARA,CENTRAL JAVA,"  28,209 ","  68,638,518 ",30,180,280
14PWR030,UKIRSARI_TB,109.83900,-7.81647,GRABAG,MC-PURWOREJO,CW-CJA-PURWOBAMEN,BANJARNEGARA,CENTRAL JAVA,"  23,703 ","  105,513,807 ",0,90,270
14PWR031,SMBRSARIPWRJ_TB,109.97,-7.76535,BANYU URIP,MC-PURWOREJO,CW-CJA-PURWOBAMEN,BANJARNEGARA,CENTRAL JAVA,"  16,138 ","  63,709,786 ",10,140,270
14PWR032,WARENG_TB,109.871,-7.77265,BUTUH,MC-PURWOREJO,CW-CJA-PURWOBAMEN,BANJARNEGARA,CENTRAL JAVA,"  23,174 ","  81,375,322 ",20,120,270
14PWR033,GEPARANG,109.994,-7.86979,PURWODADI,MC-PURWOREJO,CW-CJA-PURWOBAMEN,BANJARNEGARA,CENTRAL JAVA,"  11,015 ","  97,040,355 ",5,220,300
14PWR034,BUTUH_TB,109.856,-7.72492,BUTUH,MC-PURWOREJO,CW-CJA-PURWOBAMEN,BANJARNEGARA,CENTRAL JAVA,"  21,021 ","  59,994,705 ",90,180,270
14PWR037,KRENDETAN_TB,110.015,-7.84141,BAGELEN,MC-PURWOREJO,CW-CJA-PURWOBAMEN,BANJARNEGARA,CENTRAL JAVA,"  16,215 ","  72,132,649 ",0,100,285
14PWR048,JATINGARANG_PWR_PL,109.91227,-7.73706,BAYAN,MC-PURWOREJO,CW-CJA-PURWOBAMEN,BANJARNEGARA,CENTRAL JAVA,"  6,331 ","  53,300,326 ",20,185,320
14PWR049,KALIHARJO_PWR_ST,110.06741,-7.74126,KALIGESING,MC-PURWOREJO,CW-CJA-PURWOBAMEN,BANJARNEGARA,CENTRAL JAVA,"  31,555 ",  -   ,60,280,350
14PWR050,KEDUREN_PWR_ST,110.00158,-7.79505,PURWODADI,MC-PURWOREJO,CW-CJA-PURWOBAMEN,BANJARNEGARA,CENTRAL JAVA,"  14,714 ","  57,522,988 ",70,200,280
14PWR052,JENAYA_PWR_PL,110.01462,-7.71471,PURWOREJO,MC-PURWOREJO,CW-CJA-PURWOBAMEN,BANJARNEGARA,CENTRAL JAVA,  -   ,"  86,148,876 ",0,135,240
14PWR053,LINTAS_TANJUNG_PWR_PL,109.96852,-7.85444,NGOMBOL,MC-PURWOREJO,CW-CJA-PURWOBAMEN,BANJARNEGARA,CENTRAL JAVA,  -   ,"  69,021,293 ",120,195,285
14PWR054,SONTO_PWR_TB,109.95188,-7.81771,NGOMBOL,MC-PURWOREJO,CW-CJA-PURWOBAMEN,BANJARNEGARA,CENTRAL JAVA,  -   ,"  67,340,217 ",110,225,295
14PWR055,TUKSONGO_PWR_PL,110.0134,-7.70643,PURWOREJO,MC-PURWOREJO,CW-CJA-PURWOBAMEN,BANJARNEGARA,CENTRAL JAVA,  -   ,"  86,319,087 ",0,100,250
14PWR056,KRASAKAGLIK_PWR_MT,109.94852,-7.7347,BAYAN,MC-PURWOREJO,CW-CJA-PURWOBAMEN,BANJARNEGARA,CENTRAL JAVA,  -   ,"  48,275,987 ",40,120,240
14PWR057,BORO_HARMONY_PWR_TB,110.0047,-7.73685,PURWOREJO,MC-PURWOREJO,CW-CJA-PURWOBAMEN,BANJARNEGARA,CENTRAL JAVA,  -   ,"  50,010,372 ",15,210,310
14PWR058,AFRIKAN_PWR_MT,109.997896,-7.719872,PURWOREJO,MC-PURWOREJO,CW-CJA-PURWOBAMEN,BANJARNEGARA,CENTRAL JAVA,  -   ,"  81,405,262 ",135,245,310
14PWR059,KYAI_SOBO_PWR_MT,109.99561,-7.69698,GEBANG,MC-PURWOREJO,CW-CJA-PURWOBAMEN,BANJARNEGARA,CENTRAL JAVA,  -   ,"  36,320,945 ",50,125,280
14PWR060,BAKUREJO_PWR_IB,109.85982,-7.8164,GRABAG,MC-PURWOREJO,CW-CJA-PURWOBAMEN,BANJARNEGARA,CENTRAL JAVA,  -   ,"  73,700,468 ",105,175,305
14PWR061,LENGIS_PWR_PL,109.91854,-7.78234,GRABAG,MC-PURWOREJO,CW-CJA-PURWOBAMEN,BANJARNEGARA,CENTRAL JAVA,  -   ,"  77,473,877 ",60,260,350
14PWR062,ARIFA_PWR_PL,109.88138,-7.72751,BUTUH,MC-PURWOREJO,CW-CJA-PURWOBAMEN,BANJARNEGARA,CENTRAL JAVA,  -   ,"  52,694,957 ",85,185,260
14PWR063,JOGORESAN_PWR_PL,110.01807,-7.87261,PURWODADI,MC-PURWOREJO,CW-CJA-PURWOBAMEN,BANJARNEGARA,CENTRAL JAVA,  -   ,"  38,976,662 ",145,210,275
14PWR064,PACOR_PWR_CM,109.90395,-7.70337,KUTOARJO,MC-PURWOREJO,CW-CJA-PURWOBAMEN,BANJARNEGARA,CENTRAL JAVA,  -   ,"  47,880,238 ",25,190,315
14PWR065,KATEP_PWR_PL,110.01708,-7.8154,BAGELEN,MC-PURWOREJO,CW-CJA-PURWOBAMEN,BANJARNEGARA,CENTRAL JAVA,  -   ,"  34,412,798 ",20,175,290
14PWR066,SILANGIT_PWR_MT,109.922667,-7.821971,NGOMBOL,MC-PURWOREJO,CW-CJA-PURWOBAMEN,BANJARNEGARA,CENTRAL JAVA,  -   ,"  42,217,156 ",120,280,350
14PWR067,ARROHMAN_PWR_IB,110.02955,-7.8544,BAGELEN,MC-PURWOREJO,CW-CJA-PURWOBAMEN,BANJARNEGARA,CENTRAL JAVA,  -   ,"  35,737,415 ",145,220,290
14PWR068,PADAN_PWR_PL,109.94416,-7.74634,BANYU URIP,MC-PURWOREJO,CW-CJA-PURWOBAMEN,BANJARNEGARA,CENTRAL JAVA,  -   ,"  33,882,223 ",0,150,245
14PWR069,GRANTUNG_PWR_IB,109.95428,-7.71696,BAYAN,MC-PURWOREJO,CW-CJA-PURWOBAMEN,BANJARNEGARA,CENTRAL JAVA,  -   ,"  35,648,058 ",0,140,215
14PWR070,SEREN_PWR_ST,109.97804,-7.67821,GEBANG,MC-PURWOREJO,CW-CJA-PURWOBAMEN,BANJARNEGARA,CENTRAL JAVA,  -   ,"  46,662,273 ",5,100,200
14PWR071,KROYOLOR_PWR_IB,109.9169,-7.6744,KEMIRI,MC-PURWOREJO,CW-CJA-PURWOBAMEN,BANJARNEGARA,CENTRAL JAVA,  -   ,"  23,044,126 ",90,170,295
14PWR072,PRIGELAN_PWR_MT,109.81945,-7.6698,PITURUH,MC-PURWOREJO,CW-CJA-PURWOBAMEN,BANJARNEGARA,CENTRAL JAVA,  -   ,"  47,346,615 ",10,185,255
14PWR073,KETOSARI_PWR_PL,110.05747,-7.60639,BENER,MC-PURWOREJO,CW-CJA-PURWOBAMEN,BANJARNEGARA,CENTRAL JAVA,  -   ,"  51,108,360 ",185,255,340
14PWR074,TLEPO_PWR_CM,110.038747,-7.669053,LOANO,MC-PURWOREJO,CW-CJA-PURWOBAMEN,BANJARNEGARA,CENTRAL JAVA,  -   ,"  47,248,984 ",70,195,290
14PWR075,MEGULUNG_PWR_TB,109.82388,-7.70174,PITURUH,MC-PURWOREJO,CW-CJA-PURWOBAMEN,BANJARNEGARA,CENTRAL JAVA,  -   ,"  42,235,525 ",25,160,240
14PWR076,PASARANOM_PWR_PL,109.91471,-7.83484,GRABAG,MC-PURWOREJO,CW-CJA-PURWOBAMEN,BANJARNEGARA,CENTRAL JAVA,  -   ,"  80,862,510 ",110,180,280
14PWR077,SRUWOH_PWR_MT,109.84254,-7.7519,BUTUH,MC-PURWOREJO,CW-CJA-PURWOBAMEN,BANJARNEGARA,CENTRAL JAVA,  -   ,"  29,712,486 ",85,180,290
14PWR078,ALANSHORY_PWR_PL,109.88787,-7.78972,GRABAG,MC-PURWOREJO,CW-CJA-PURWOBAMEN,BANJARNEGARA,CENTRAL JAVA,  -   ,"  58,686,441 ",30,170,310
14PWR079,PEKUTAN_PWR_PL,109.95153,-7.68345,BAYAN,MC-PURWOREJO,CW-CJA-PURWOBAMEN,BANJARNEGARA,CENTRAL JAVA,  -   ,"  40,261,895 ",20,215,300
14PWR080,KALIGINTUNG_PWR_PL,109.8701,-7.68427,KEMIRI,MC-PURWOREJO,CW-CJA-PURWOBAMEN,BANJARNEGARA,CENTRAL JAVA,  -   ,  -   ,20,110,235
14PWR081,KALIMIRU_PWR_PL,109.97601,-7.70174,BAYAN,MC-PURWOREJO,CW-CJA-PURWOBAMEN,BANJARNEGARA,CENTRAL JAVA,  -   ,"  23,368,212 ",160,230,310
14PWR082,PANGENREJO_PWR_CM,110.03019,-7.746697,PURWOREJO,MC-PURWOREJO,CW-CJA-PURWOBAMEN,BANJARNEGARA,CENTRAL JAVA,  -   ,"  43,686,771 ",100,170,250
14PWR083,KUWUREJO_PWR_MT,109.90794,-7.72347,KUTOARJO,MC-PURWOREJO,CW-CJA-PURWOBAMEN,BANJARNEGARA,CENTRAL JAVA,  -   ,"  61,221,685 ",40,100,270
14PWR084,SDNSENOPO_PWR_TB,109.9177,-7.72531,KUTOARJO,MC-PURWOREJO,CW-CJA-PURWOBAMEN,BANJARNEGARA,CENTRAL JAVA,  -   ,"  35,708,537 ",55,245,320
14PWR085,CANGKREPLOR_PWR_MT,110.01914,-7.72665,PURWOREJO,MC-PURWOREJO,CW-CJA-PURWOBAMEN,BANJARNEGARA,CENTRAL JAVA,  -   ,"  31,639,823 ",30,95,180
14PWR087,DADIREJO_PWR_PL,110.04198,-7.87824,BAGELEN,MC-PURWOREJO,CW-CJA-PURWOBAMEN,BANJARNEGARA,CENTRAL JAVA,  -   ,"  43,414,395 ",135,225,350
14COW028,M_NJUNGPASIR_TB,110.668,-6.75316,WEDUNG,MC-DEMAK,CW-CJA-KUDEPARA,KUDUS,CENTRAL JAVA,"  4,753 ","  125,150,583 ",0,160,220
14DMK0001,SAYUNG1_TB,110.48567,-6.94428,SAYUNG,MC-DEMAK,CW-CJA-KUDEPARA,KUDUS,CENTRAL JAVA,  -   ,  -   ,NULL,NULL,NULL
14DMK001,DEMAK,110.637,-6.88898,DEMAK,MC-DEMAK,CW-CJA-KUDEPARA,KUDUS,CENTRAL JAVA,"  5,200 ","  102,789,425 ",60,150,295
14DMK002,GAJAH,110.73563,-6.86955,KARANGANYAR,MC-DEMAK,CW-CJA-KUDEPARA,KUDUS,CENTRAL JAVA,"  14,564 ","  95,350,965 ",0,90,270
14DMK003,KARANGAWENSM,110.57,-7.04384,KARANGAWEN,MC-DEMAK,CW-CJA-KUDEPARA,KUDUS,CENTRAL JAVA,"  4,349 ","  116,409,059 ",30,90,270
14DMK005,DEMPETSM,110.701,-6.95726,DEMPET,MC-DEMAK,CW-CJA-KUDEPARA,KUDUS,CENTRAL JAVA,"  16,666 ","  76,013,155 ",35,135,290
14DMK006,MRANGGEN,110.517,-7.0267,MRANGGEN,MC-DEMAK,CW-CJA-KUDEPARA,KUDUS,CENTRAL JAVA,"  6,498 ","  140,473,798 ",50,190,310
14DMK0076,ANEKA_TB,110.62910,-6.89959,DEMAK,MC-DEMAK,CW-CJA-KUDEPARA,KUDUS,CENTRAL JAVA,  -   ,  -   ,NULL,NULL,NULL
14DMK008,SAYUNG,110.505,-6.94238,SAYUNG,MC-DEMAK,CW-CJA-KUDEPARA,KUDUS,CENTRAL JAVA,"  5,683 ","  129,369,087 ",60,160,310
14DMK009,PUCANG_GADING,110.493,-7.03824,MRANGGEN,MC-DEMAK,CW-CJA-KUDEPARA,KUDUS,CENTRAL JAVA,"  10,394 ","  134,586,785 ",60,150,290
14DMK010,KARANGTENGAH_SMG,110.6,-6.919,KARANG TENGAH,MC-DEMAK,CW-CJA-KUDEPARA,KUDUS,CENTRAL JAVA,"  23,023 ","  126,162,622 ",75,180,300
14DMK012,MANGUNANLOR_TB,110.734,-7.02254,KEBONAGUNG,MC-DEMAK,CW-CJA-KUDEPARA,KUDUS,CENTRAL JAVA,"  16,072 ","  61,908,613 ",30,220,320
14DMK013,BATURSARI_PL,110.505,-7.04102,MRANGGEN,MC-DEMAK,CW-CJA-KUDEPARA,KUDUS,CENTRAL JAVA,"  3,641 ","  66,400,687 ",115,250,355
14DMK015,JRAGUNG_TBG,110.553,-7.12001,KARANGAWEN,MC-DEMAK,CW-CJA-KUDEPARA,KUDUS,CENTRAL JAVA,"  19,838 ","  50,685,794 ",60,185,315
14DMK016,PENGAPON_EB,110.683,-6.9422,WONOSALAM,MC-DEMAK,CW-CJA-KUDEPARA,KUDUS,CENTRAL JAVA,"  4,653 ","  68,125,885 ",0,130,250
14DMK018,DEMPETGAJAH,110.709,-6.93611,DEMPET,MC-DEMAK,CW-CJA-KUDEPARA,KUDUS,CENTRAL JAVA,"  6,209 ","  52,708,691 ",20,115,175
14DMK019,JAGALANRAYA_TB,110.512,-7.02071,MRANGGEN,MC-DEMAK,CW-CJA-KUDEPARA,KUDUS,CENTRAL JAVA,"  8,222 ","  113,365,493 ",50,185,295
14DMK020,KALIKONDANG_EB,110.604,-6.91086,DEMAK,MC-DEMAK,CW-CJA-KUDEPARA,KUDUS,CENTRAL JAVA,"  21,964 ","  109,278,089 ",0,120,260
14DMK021,BONANGSM,110.572,-6.84103,BONANG,MC-DEMAK,CW-CJA-KUDEPARA,KUDUS,CENTRAL JAVA,"  12,570 ","  84,079,466 ",120,210,300
14DMK022,KRANYARDMK,110.80212,-6.85138,KARANGANYAR,MC-DEMAK,CW-CJA-KUDEPARA,KUDUS,CENTRAL JAVA,"  6,089 ","  107,846,451 ",75,250,5
14DMK023,WEDUNG,110.613,-6.7986,WEDUNG,MC-DEMAK,CW-CJA-KUDEPARA,KUDUS,CENTRAL JAVA,"  33,918 ","  166,141,426 ",40,140,310
14DMK024,BATUDMK,110.554,-6.92767,KARANG TENGAH,MC-DEMAK,CW-CJA-KUDEPARA,KUDUS,CENTRAL JAVA,"  15,775 ","  87,247,497 ",110,205,305
14DMK026,WONOSALAM,110.658,-6.91203,WONOSALAM,MC-DEMAK,CW-CJA-KUDEPARA,KUDUS,CENTRAL JAVA,"  6,684 ","  29,741,744 ",100,220,345
14DMK027,GUNTUR_DMK,110.616,-6.97809,GUNTUR,MC-DEMAK,CW-CJA-KUDEPARA,KUDUS,CENTRAL JAVA,"  13,752 ","  96,236,175 ",0,105,215
14DMK028,TELOGOREJODMK,110.559,-7.08649,KARANGAWEN,MC-DEMAK,CW-CJA-KUDEPARA,KUDUS,CENTRAL JAVA,"  6,386 ","  144,034,602 ",20,175,285
14DMK029,BULUSARISM,110.563,-6.9852,GUNTUR,MC-DEMAK,CW-CJA-KUDEPARA,KUDUS,CENTRAL JAVA,"  25,600 ","  99,646,671 ",40,160,265
14DMK030,MLATIHARJO,110.764,-6.90381,GAJAH,MC-DEMAK,CW-CJA-KUDEPARA,KUDUS,CENTRAL JAVA,"  10,493 ","  99,859,245 ",45,220,310
14DMK031,DEMAKTIMUR,110.677,-6.88271,DEMAK,MC-DEMAK,CW-CJA-KUDEPARA,KUDUS,CENTRAL JAVA,"  13,448 ","  125,291,954 ",120,245,355
14DMK034,PENGGARON,110.504,-7.0194,MRANGGEN,MC-DEMAK,CW-CJA-KUDEPARA,KUDUS,CENTRAL JAVA,"  8,888 ","  84,487,801 ",50,155,260
14DMK035,MIJENDMK,110.72066,-6.8389,MIJEN,MC-DEMAK,CW-CJA-KUDEPARA,KUDUS,CENTRAL JAVA,"  32,109 ","  118,956,237 ",0,250,300
14DMK037,TAMPE_PL,110.734,-6.98778,DEMPET,MC-DEMAK,CW-CJA-KUDEPARA,KUDUS,CENTRAL JAVA,"  23,122 ","  39,293,834 ",35,125,220
14DMK038,DEMAK_KOTA,110.643,-6.89156,DEMAK,MC-DEMAK,CW-CJA-KUDEPARA,KUDUS,CENTRAL JAVA,"  3,978 ","  84,797,080 ",50,180,265
14DMK039,KURIPANMT,110.5424051,-7.0325821,KARANGAWEN,MC-DEMAK,CW-CJA-KUDEPARA,KUDUS,CENTRAL JAVA,"  13,746 ","  93,837,754 ",0,80,240
14DMK040,REJOSARITBG,110.576,-7.05897,KARANGAWEN,MC-DEMAK,CW-CJA-KUDEPARA,KUDUS,CENTRAL JAVA,"  5,934 ","  111,658,324 ",155,230,355
14DMK041,PAMONGANPL,110.596,-7.0048,GUNTUR,MC-DEMAK,CW-CJA-KUDEPARA,KUDUS,CENTRAL JAVA,"  6,171 ","  83,858,625 ",50,180,310
14DMK043,MRANGGEN_PL,110.532,-7.02903,MRANGGEN,MC-DEMAK,CW-CJA-KUDEPARA,KUDUS,CENTRAL JAVA,"  7,887 ","  72,321,714 ",10,95,220
14DMK044,SAYUNGSELATAN_TBG,110.506,-6.96214,SAYUNG,MC-DEMAK,CW-CJA-KUDEPARA,KUDUS,CENTRAL JAVA,"  16,771 ","  93,359,711 ",10,100,285
14DMK046,REJOSARIDMK_PL,110.655,-6.88693,WONOSALAM,MC-DEMAK,CW-CJA-KUDEPARA,KUDUS,CENTRAL JAVA,"  7,149 ","  65,379,333 ",20,110,220
14DMK047,KADILANGU_CM,110.649,-6.90067,DEMAK,MC-DEMAK,CW-CJA-KUDEPARA,KUDUS,CENTRAL JAVA,"  4,955 ","  64,924,648 ",0,110,270
14DMK048,CANGKRING_DMK_TB,110.767,-6.86505,KARANGANYAR,MC-DEMAK,CW-CJA-KUDEPARA,KUDUS,CENTRAL JAVA,"  8,586 ","  70,652,599 ",70,165,275
14DMK050,KALIGAWE_IB,110.494,-6.94758,SAYUNG,MC-DEMAK,CW-CJA-KUDEPARA,KUDUS,CENTRAL JAVA,"  16,178 ","  72,374,723 ",120,250,345
14DMK051,TRENGGULI_EB,110.693,-6.88071,WONOSALAM,MC-DEMAK,CW-CJA-KUDEPARA,KUDUS,CENTRAL JAVA,"  6,604 ","  45,144,093 ",30,140,270
14DMK066,DSPASIR_TB,110.656,-6.78214,WEDUNG,MC-DEMAK,CW-CJA-KUDEPARA,KUDUS,CENTRAL JAVA,"  13,085 ","  94,779,714 ",45,125,210
14DMK070,PLAMONGAN_DMK_MT,110.496,-7.03149,MRANGGEN,MC-DEMAK,CW-CJA-KUDEPARA,KUDUS,CENTRAL JAVA,"  1,794 ","  58,453,003 ",10,160,240
14DMK071,SATRIA_DMK_MT,110.512,-7.03564,MRANGGEN,MC-DEMAK,CW-CJA-KUDEPARA,KUDUS,CENTRAL JAVA,"  3,870 ","  97,108,582 ",20,140,280
14DMK072,ANEKA_DMK_TB,110.629,-6.89959,DEMAK,MC-DEMAK,CW-CJA-KUDEPARA,KUDUS,CENTRAL JAVA,"  7,624 ","  96,064,733 ",50,170,270
14DMK073,TELOGO_DMK_PL,110.49608,-7.04622,MRANGGEN,MC-DEMAK,CW-CJA-KUDEPARA,KUDUS,CENTRAL JAVA,  -   ,"  78,109,517 ",20,160,290
14DMK075,JRAGUNG_DMK_CM,110.56419,-7.11634,KARANGAWEN,MC-DEMAK,CW-CJA-KUDEPARA,KUDUS,CENTRAL JAVA,"  33,866 ","  58,497,544 ",215,280,350
14DMK076,KUNCIR_WONOSALAM_DMK_CM,110.701111,-6.895556,WONOSALAM,MC-DEMAK,CW-CJA-KUDEPARA,KUDUS,CENTRAL JAVA,"  7,375 ","  34,080,734 ",15,130,270
14DMK077,BINTORO_DMK_GH,110.64796,-6.88946,DEMAK,MC-DEMAK,CW-CJA-KUDEPARA,KUDUS,CENTRAL JAVA,"  9,707 ","  44,268,846 ",50,190,320
14DMK078,KRAPYAK_BARAT_DMK_PL,110.64204,-6.88543,DEMAK,MC-DEMAK,CW-CJA-KUDEPARA,KUDUS,CENTRAL JAVA,"  16,670 ","  32,355,673 ",100,230,350
14DMK080,SIDOMULYO_WONOSALAM_DMK_MT,110.66172,-6.91154,WONOSALAM,MC-DEMAK,CW-CJA-KUDEPARA,KUDUS,CENTRAL JAVA,"  2,478 ","  35,712,300 ",80,180,340
14DMK081,BALEDONO_DMK_CM,110.612222,-6.946944,KARANG TENGAH,MC-DEMAK,CW-CJA-KUDEPARA,KUDUS,CENTRAL JAVA,"  17,508 ","  31,163,195 ",70,170,310
14DMK082,DRONO_DMK_ST,110.67289,-6.92655,WONOSALAM,MC-DEMAK,CW-CJA-KUDEPARA,KUDUS,CENTRAL JAVA,"  17,004 ","  66,574,634 ",60,150,240
14DMK083,HARJOWINANGUN_2_DMK_ST,110.74344,-6.92814,DEMPET,MC-DEMAK,CW-CJA-KUDEPARA,KUDUS,CENTRAL JAVA,"  15,316 ","  93,808,571 ",60,135,290
14DMK084,CANGKRING_2_DMK_PL,110.78726,-6.85832,KARANGANYAR,MC-DEMAK,CW-CJA-KUDEPARA,KUDUS,CENTRAL JAVA,"  6,187 ","  81,154,689 ",0,130,230
14DMK085,JL_RAYA_KUDUS_DEMAK_DMK_MT,110.74461,-6.8908,GAJAH,MC-DEMAK,CW-CJA-KUDEPARA,KUDUS,CENTRAL JAVA,"  7,996 ","  97,025,234 ",30,120,310
14DMK086,GAJAH_2_DMK_MT,110.71514,-6.87199,DEMAK,MC-DEMAK,CW-CJA-KUDEPARA,KUDUS,CENTRAL JAVA,"  5,875 ","  25,156,895 ",70,255,330
14DMK087,GENENG_MIJEN_DMK_PL,110.7125,-6.85258,MIJEN,MC-DEMAK,CW-CJA-KUDEPARA,KUDUS,CENTRAL JAVA,"  8,172 ","  58,893,485 ",0,115,235
14DMK088,BETAHWALANG_DMK_CM,110.58712,-6.81336,BONANG,MC-DEMAK,CW-CJA-KUDEPARA,KUDUS,CENTRAL JAVA,"  48,068 ","  62,346,621 ",150,260,340
14DMK089,PONPES_AL_ISLAH_DMK_MT,110.6395,-6.8980366,DEMAK,MC-DEMAK,CW-CJA-KUDEPARA,KUDUS,CENTRAL JAVA,"  6,302 ","  39,278,825 ",40,220,310
14DMK090,GEMULAK_DMK_PL,110.53411,-6.9324,SAYUNG,MC-DEMAK,CW-CJA-KUDEPARA,KUDUS,CENTRAL JAVA,"  37,155 ","  82,824,228 ",30,160,250
14DMK091,KALIANYAR_2_DMK_CM,110.67664,-6.96089,WONOSALAM,MC-DEMAK,CW-CJA-KUDEPARA,KUDUS,CENTRAL JAVA,"  19,215 ","  48,798,850 ",30,170,280
14DMK092,BOGOSARI_DMK_CM,110.6056,-6.9899768,GUNTUR,MC-DEMAK,CW-CJA-KUDEPARA,KUDUS,CENTRAL JAVA,"  10,866 ","  89,348,692 ",40,200,300
14DMK093,CANDISARI_DMK_CM,110.5686,-6.99626,GUNTUR,MC-DEMAK,CW-CJA-KUDEPARA,KUDUS,CENTRAL JAVA,"  11,514 ","  82,637,102 ",60,200,300
14DMK094,TLOGOREJO_KARANGAWEN_DMK_GH,110.568528,-7.065472,KARANGAWEN,MC-DEMAK,CW-CJA-KUDEPARA,KUDUS,CENTRAL JAVA,"  6,533 ","  41,329,232 ",30,120,200
14DMK095,KARANGAWEN_DMK_PL,110.58357,-7.04548,KARANGAWEN,MC-DEMAK,CW-CJA-KUDEPARA,KUDUS,CENTRAL JAVA,"  5,139 ","  60,264,926 ",100,220,285
14DMK096,NGASEM_DMK_PL,110.58452,-7.03721,KARANGAWEN,MC-DEMAK,CW-CJA-KUDEPARA,KUDUS,CENTRAL JAVA,"  4,603 ","  64,084,356 ",55,250,350
14DMK097,KANGKUNG_2_DMK_MT,110.51805,-7.04716,MRANGGEN,MC-DEMAK,CW-CJA-KUDEPARA,KUDUS,CENTRAL JAVA,"  14,114 ","  47,863,633 ",70,240,320
14DMK098,KURIPAN_DMK_MT,110.550412,-7.0355262,KARANGAWEN,MC-DEMAK,CW-CJA-KUDEPARA,KUDUS,CENTRAL JAVA,"  7,566 ","  61,313,663 ",50,120,210
14DMK099,BATURSARI_KEDUNG_DMK_PL,110.51008,-7.02667,MRANGGEN,MC-DEMAK,CW-CJA-KUDEPARA,KUDUS,CENTRAL JAVA,"  2,299 ","  65,703,277 ",120,240,330
14DMK101,SARIREJO_DMK_CM,110.58837,-6.99853,GUNTUR,MC-DEMAK,CW-CJA-KUDEPARA,KUDUS,CENTRAL JAVA,"  10,107 ","  54,857,030 ",70,230,310
14DMK102,BRAMBANG_DMK_IB,110.59486,-7.01561,KARANGAWEN,MC-DEMAK,CW-CJA-KUDEPARA,KUDUS,CENTRAL JAVA,"  8,673 ","  102,686,816 ",90,190,320
14DMK103,DUKOH_DMK_CM,110.5199,-7.06458,MRANGGEN,MC-DEMAK,CW-CJA-KUDEPARA,KUDUS,CENTRAL JAVA,"  23,495 ","  80,261,492 ",50,140,270
14DMK104,TLOGOREJO_DMK_ST,110.56286,-7.07792,KARANGAWEN,MC-DEMAK,CW-CJA-KUDEPARA,KUDUS,CENTRAL JAVA,"  5,061 ","  70,883,126 ",30,120,210
14DMK105,WONOSALAM_2_DMK_CM,110.6276,-6.929213,WONOSALAM,MC-DEMAK,CW-CJA-KUDEPARA,KUDUS,CENTRAL JAVA,"  18,915 ","  59,756,680 ",20,130,280
14DMK106,GEDANG_ALAS_DMK_TB,110.71846,-6.91151,GAJAH,MC-DEMAK,CW-CJA-KUDEPARA,KUDUS,CENTRAL JAVA,"  11,181 ","  46,409,878 ",90,210,320
14DMK110,SEDRAN_RAYA_DMK_PL,110.53608,-6.97431,SAYUNG,MC-DEMAK,CW-CJA-KUDEPARA,KUDUS,CENTRAL JAVA,  -   ,"  56,424,440 ",30,130,270
14DMK111,MAKAM_DES_DMK_CM,110.524306,-7.007694,MRANGGEN,MC-DEMAK,CW-CJA-KUDEPARA,KUDUS,CENTRAL JAVA,  -   ,"  62,506,707 ",10,100,220
14DMK113,BALAI_BAMBU_DMK_TB,110.77661,-6.81624,KARANGANYAR,MC-DEMAK,CW-CJA-KUDEPARA,KUDUS,CENTRAL JAVA,  -   ,"  82,453,819 ",80,145,345
14DMK114,GILI_SARIMULYO_DMK_PL,110.68343,-6.98702,KEBONAGUNG,MC-DEMAK,CW-CJA-KUDEPARA,KUDUS,CENTRAL JAVA,  -   ,"  11,137,026 ",30,200,280
14DMK115,RIGA_DMK_PL,110.572578,-6.923875,KARANG TENGAH,MC-DEMAK,CW-CJA-KUDEPARA,KUDUS,CENTRAL JAVA,  -   ,"  74,658,487 ",90,250,340
14DMK117,JERUKGULUNG_DMK_IB,110.71929,-6.97521,DEMPET,MC-DEMAK,CW-CJA-KUDEPARA,KUDUS,CENTRAL JAVA,  -   ,"  29,663,890 ",25,190,280
14DMK118,WARES_DMK_PL,110.71867,-6.7924,MIJEN,MC-DEMAK,CW-CJA-KUDEPARA,KUDUS,CENTRAL JAVA,  -   ,"  58,929,103 ",50,115,340
14DMK119,TELUK_RAYA_DMK_IB,110.54481,-7.05654,KARANGAWEN,MC-DEMAK,CW-CJA-KUDEPARA,KUDUS,CENTRAL JAVA,  -   ,"  64,770,361 ",0,70,170
14DMK120,BONANG_DMK_MT,110.61159,-6.863905,DEMAK,MC-DEMAK,CW-CJA-KUDEPARA,KUDUS,CENTRAL JAVA,  -   ,"  19,978,854 ",40,140,300
14DMK121,BOKOPAYUNG_DMK_TB,110.52511,-6.89787,SAYUNG,MC-DEMAK,CW-CJA-KUDEPARA,KUDUS,CENTRAL JAVA,  -   ,"  23,544,022 ",0,130,250
14DMK122,CABEAN_KIDUL_DMK_TB,110.596,-7.05206,KARANGAWEN,MC-DEMAK,CW-CJA-KUDEPARA,KUDUS,CENTRAL JAVA,  -   ,"  36,244,575 ",60,270,355
14DMK124,PASEBAN_DMK_TB,110.74447,-7.00167,KEBONAGUNG,MC-DEMAK,CW-CJA-KUDEPARA,KUDUS,CENTRAL JAVA,  -   ,"  41,129,985 ",85,190,345
14DMK130,JALI_DMK_TB,110.64501,-6.84562,BONANG,MC-DEMAK,CW-CJA-KUDEPARA,KUDUS,CENTRAL JAVA,  -   ,"  16,841,081 ",75,190,310
14DMK132,MLATEN_DMK_TB,110.70699,-6.83825,MIJEN,MC-DEMAK,CW-CJA-KUDEPARA,KUDUS,CENTRAL JAVA,  -   ,"  49,981,778 ",35,110,284
14DMK133,CANDISARI_DMK_TB,110.55332,-7.01725,MRANGGEN,MC-DEMAK,CW-CJA-KUDEPARA,KUDUS,CENTRAL JAVA,  -   ,"  15,383,235 ",20,230,295
14DMK134,KRAJANBOGO_DMK_IB,110.59081,-6.88165,BONANG,MC-DEMAK,CW-CJA-KUDEPARA,KUDUS,CENTRAL JAVA,  -   ,"  18,112,990 ",75,150,320
14DMK135,DEMPET_DMK_IB,110.6988,-6.94749,DEMPET,MC-DEMAK,CW-CJA-KUDEPARA,KUDUS,CENTRAL JAVA,  -   ,"  65,157,567 ",30,150,250
14DMK136,TEMUROSO_DMK_PL,110.59097,-6.97792,GUNTUR,MC-DEMAK,CW-CJA-KUDEPARA,KUDUS,CENTRAL JAVA,  -   ,"  40,324,823 ",30,200,270
14DMK219,PASIR_BAWANG_DMK_TB,110.67869,-6.79424,MIJEN,MC-DEMAK,CW-CJA-KUDEPARA,KUDUS,CENTRAL JAVA,  -   ,"  23,527,550 ",100,235,300
14KDS046,UNDAANLOR_PL,110.80157,-6.87929,KARANGANYAR,MC-DEMAK,CW-CJA-KUDEPARA,KUDUS,CENTRAL JAVA,"  8,258 ","  61,425,472 ",120,210,330
14KDS058,SETROKALANGAN_PL,110.787,-6.82639,KARANGANYAR,MC-DEMAK,CW-CJA-KUDEPARA,KUDUS,CENTRAL JAVA,"  10,459 ","  90,878,985 ",40,165,330
14KDS131,ANJANI_PL,110.83202,-6.85342,KARANGANYAR,MC-DEMAK,CW-CJA-KUDEPARA,KUDUS,CENTRAL JAVA,"  8,569 ","  55,472,695 ",15,180,285
14KDS132,PANJUNAN_KDS_GH,110.78991,-6.87362,KARANGANYAR,MC-DEMAK,CW-CJA-KUDEPARA,KUDUS,CENTRAL JAVA,"  5,374 ","  54,836,255 ",125,220,330
14KDS133,MEDINI_KDS_ST,110.7808,-6.91806,GAJAH,MC-DEMAK,CW-CJA-KUDEPARA,KUDUS,CENTRAL JAVA,"  5,245 ","  81,056,372 ",25,110,210
14SMG111,KUDU,110.512,-6.9812,MRANGGEN,MC-DEMAK,CW-CJA-KUDEPARA,KUDUS,CENTRAL JAVA,"  37,051 ","  76,352,149 ",70,165,240
14SMG112,KEBONROJO,110.507,-7.05317,MRANGGEN,MC-DEMAK,CW-CJA-KUDEPARA,KUDUS,CENTRAL JAVA,"  16,627 ","  81,409,362 ",55,210,285
14SMG233,DUSUNDONGKO_CT,110.492,-7.05167,MRANGGEN,MC-DEMAK,CW-CJA-KUDEPARA,KUDUS,CENTRAL JAVA,"  4,747 ","  97,865,126 ",50,130,320
14DMK045,UJUNGPANDAN_TB,110.672,-6.7644,WELAHAN,MC-JEPARA,CW-CJA-KUDEPARA,KUDUS,CENTRAL JAVA,"  8,426 ","  106,298,128 ",105,205,315
14JPA0001,VS_KARIMUNJAWA_PL,110.43500,-5.87239,KARIMUNJAWA,MC-JEPARA,CW-CJA-KUDEPARA,KUDUS,CENTRAL JAVA,  -   ,  -   ,NULL,NULL,NULL
14JPA0002,KEDUNGMLNGJPA_TB,110.64200,-6.71186,KEDUNG,MC-JEPARA,CW-CJA-KUDEPARA,KUDUS,CENTRAL JAVA,  -   ,  -   ,NULL,NULL,NULL
14JPA0003,PLATAR_MT,110.64881,-6.62781,TAHUNAN,MC-JEPARA,CW-CJA-KUDEPARA,KUDUS,CENTRAL JAVA,  -   ,"  1,605,470 ",NULL,NULL,NULL
14JPA0004,KEMAH_BAKTI_TB,110.65446,-6.55800,JEPARA,MC-JEPARA,CW-CJA-KUDEPARA,KUDUS,CENTRAL JAVA,  -   ,"  25,721,485 ",NULL,NULL,NULL
14JPA0005,KAMPUNGBULU_TB,110.65475,-6.59230,JEPARA,MC-JEPARA,CW-CJA-KUDEPARA,KUDUS,CENTRAL JAVA,  -   ,  -   ,NULL,NULL,NULL
14JPA0006,TEGALSAMBI_PL,110.65484,-6.61827,TAHUNAN,MC-JEPARA,CW-CJA-KUDEPARA,KUDUS,CENTRAL JAVA,  -   ,"  3,026,713 ",NULL,NULL,NULL
14JPA0007,TEDUNAN_BM,110.65699,-6.71182,KEDUNG,MC-JEPARA,CW-CJA-KUDEPARA,KUDUS,CENTRAL JAVA,  -   ,  -   ,NULL,NULL,NULL
14JPA0008,KRGKEBAGUSAN_CM,110.65800,-6.60568,JEPARA,MC-JEPARA,CW-CJA-KUDEPARA,KUDUS,CENTRAL JAVA,  -   ,"  26,184,836 ",NULL,NULL,NULL
14JPA0009,KALIKANAL_CM,110.65800,-6.59778,JEPARA,MC-JEPARA,CW-CJA-KUDEPARA,KUDUS,CENTRAL JAVA,  -   ,"  8,943,394 ",NULL,NULL,NULL
14JPA001,NGABUL,110.712,-6.6437,TAHUNAN,MC-JEPARA,CW-CJA-KUDEPARA,KUDUS,CENTRAL JAVA,"  11,694 ","  72,567,573 ",0,160,270
14JPA0010,JOBOKUTO_PS,110.65868,-6.58551,JEPARA,MC-JEPARA,CW-CJA-KUDEPARA,KUDUS,CENTRAL JAVA,  -   ,"  3,458,480 ",NULL,NULL,NULL
14JPA0011,MANTINGANJPR_EP,110.66300,-6.61778,TAHUNAN,MC-JEPARA,CW-CJA-KUDEPARA,KUDUS,CENTRAL JAVA,  -   ,"  45,905,993 ",NULL,NULL,NULL
14JPA0012,JEPARA_JPA2_PL,110.66381,-6.59428,JEPARA,MC-JEPARA,CW-CJA-KUDEPARA,KUDUS,CENTRAL JAVA,  -   ,  -   ,NULL,NULL,NULL
14JPA0013,BUGEL_JPA_TB,110.66400,-6.66798,KEDUNG,MC-JEPARA,CW-CJA-KUDEPARA,KUDUS,CENTRAL JAVA,  -   ,  -   ,NULL,NULL,NULL
14JPA0014,KRAPYAK_JPA_HS,110.66404,-6.60103,TAHUNAN,MC-JEPARA,CW-CJA-KUDEPARA,KUDUS,CENTRAL JAVA,  -   ,"  8,481,161 ",NULL,NULL,NULL
14JPA0015,BANDENGAN_JPA_JPA2_TB,110.66500,-6.56412,JEPARA,MC-JEPARA,CW-CJA-KUDEPARA,KUDUS,CENTRAL JAVA,  -   ,"  35,828,655 ",NULL,NULL,NULL
14JPA0016,MBREGAT_PL,110.66511,-6.61268,TAHUNAN,MC-JEPARA,CW-CJA-KUDEPARA,KUDUS,CENTRAL JAVA,  -   ,"  31,274,514 ",NULL,NULL,NULL
14JPA0017,MANTINGAN_PL,110.66578,-6.62317,TAHUNAN,MC-JEPARA,CW-CJA-KUDEPARA,KUDUS,CENTRAL JAVA,  -   ,  -   ,NULL,NULL,NULL
14JPA0018,STADION_KARTINI_CM,110.66600,-6.58371,JEPARA,MC-JEPARA,CW-CJA-KUDEPARA,KUDUS,CENTRAL JAVA,  -   ,"  40,461,962 ",NULL,NULL,NULL
14JPA0019,TOCOPETEKEYAN_EB,110.66720,-6.63134,TAHUNAN,MC-JEPARA,CW-CJA-KUDEPARA,KUDUS,CENTRAL JAVA,  -   ,  -   ,NULL,NULL,NULL
14JPA002,JEPARA,110.68704,-6.61612,TAHUNAN,MC-JEPARA,CW-CJA-KUDEPARA,KUDUS,CENTRAL JAVA,"  14,310 ","  74,705,937 ",25,190,290
14JPA0020,KERSOJEPARA_TV,110.66760,-6.65438,KEDUNG,MC-JEPARA,CW-CJA-KUDEPARA,KUDUS,CENTRAL JAVA,  -   ,  -   ,NULL,NULL,NULL
14JPA0021,JEPARACITY_EP,110.66900,-6.59672,JEPARA,MC-JEPARA,CW-CJA-KUDEPARA,KUDUS,CENTRAL JAVA,  -   ,"  17,473,964 ",NULL,NULL,NULL
14JPA0022,PENGKOL_JPA_HS,110.66959,-6.58764,JEPARA,MC-JEPARA,CW-CJA-KUDEPARA,KUDUS,CENTRAL JAVA,  -   ,  -   ,NULL,NULL,NULL
14JPA0023,PURI_KENCANA_TB,110.67061,-6.63877,KEDUNG,MC-JEPARA,CW-CJA-KUDEPARA,KUDUS,CENTRAL JAVA,  -   ,"  2,568,914 ",NULL,NULL,NULL
14JPA0024,KEDUNG_CINO_MT,110.67085,-6.55812,JEPARA,MC-JEPARA,CW-CJA-KUDEPARA,KUDUS,CENTRAL JAVA,  -   ,"  46,774,007 ",NULL,NULL,NULL
14JPA0025,WANUSOBO_TB,110.67137,-6.68438,KEDUNG,MC-JEPARA,CW-CJA-KUDEPARA,KUDUS,CENTRAL JAVA,  -   ,  -   ,NULL,NULL,NULL
14JPA0026,UJUNGPANDAN_TB,110.67200,-6.76440,WELAHAN,MC-JEPARA,CW-CJA-KUDEPARA,KUDUS,CENTRAL JAVA,  -   ,  -   ,NULL,NULL,NULL
14JPA0027,KALIOMBO_JPA_CM,110.67400,-6.72735,PECANGAAN,MC-JEPARA,CW-CJA-KUDEPARA,KUDUS,CENTRAL JAVA,  -   ,  -   ,NULL,NULL,NULL
14JPA0028,PATROYUDAN_PL,110.67444,-6.60022,JEPARA,MC-JEPARA,CW-CJA-KUDEPARA,KUDUS,CENTRAL JAVA,  -   ,"  21,028,084 ",NULL,NULL,NULL
14JPA0029,BANDENGAN_JPA_JPA1_CM,110.67510,-6.56977,JEPARA,MC-JEPARA,CW-CJA-KUDEPARA,KUDUS,CENTRAL JAVA,  -   ,"  37,413,285 ",NULL,NULL,NULL
14JPA003,PECANGAAN,110.724,-6.73254,KALINYAMATAN,MC-JEPARA,CW-CJA-KUDEPARA,KUDUS,CENTRAL JAVA,"  13,841 ","  129,156,390 ",100,210,320
14JPA0030,DONGOS_HS,110.67525,-6.67048,KEDUNG,MC-JEPARA,CW-CJA-KUDEPARA,KUDUS,CENTRAL JAVA,  -   ,  -   ,NULL,NULL,NULL
14JPA0031,JLKH_MOLIKI_PL,110.67567,-6.59186,JEPARA,MC-JEPARA,CW-CJA-KUDEPARA,KUDUS,CENTRAL JAVA,  -   ,"  30,990,579 ",NULL,NULL,NULL
14JPA0032,MANTINGAN_JPA_HS,110.67755,-6.61855,TAHUNAN,MC-JEPARA,CW-CJA-KUDEPARA,KUDUS,CENTRAL JAVA,  -   ,  -   ,NULL,NULL,NULL
14JPA0033,POTROYUDAN_TB,110.67800,-6.60546,TAHUNAN,MC-JEPARA,CW-CJA-KUDEPARA,KUDUS,CENTRAL JAVA,  -   ,"  25,743,075 ",NULL,NULL,NULL
14JPA0034,GEMAHARJO1_TB,110.67900,-6.58794,JEPARA,MC-JEPARA,CW-CJA-KUDEPARA,KUDUS,CENTRAL JAVA,  -   ,"  33,526,094 ",NULL,NULL,NULL
14JPA0035,JEPARA_JPA1_MT,110.67909,-6.57987,JEPARA,MC-JEPARA,CW-CJA-KUDEPARA,KUDUS,CENTRAL JAVA,  -   ,  -   ,NULL,NULL,NULL
14JPA0036,SUKODONO_JPA_PL,110.67952,-6.62584,TAHUNAN,MC-JEPARA,CW-CJA-KUDEPARA,KUDUS,CENTRAL JAVA,  -   ,  -   ,NULL,NULL,NULL
14JPA0037,DONGOS_KEDUNG_PL,110.68044,-6.66022,KEDUNG,MC-JEPARA,CW-CJA-KUDEPARA,KUDUS,CENTRAL JAVA,  -   ,  -   ,NULL,NULL,NULL
14JPA0038,SENENAN_CM,110.68400,-6.59512,TAHUNAN,MC-JEPARA,CW-CJA-KUDEPARA,KUDUS,CENTRAL JAVA,  -   ,"  41,544,486 ",NULL,NULL,NULL
14JPA0039,JEPARAUTARA_EP,110.68500,-6.57446,JEPARA,MC-JEPARA,CW-CJA-KUDEPARA,KUDUS,CENTRAL JAVA,  -   ,"  27,869,772 ",NULL,NULL,NULL
14JPA004,PECANGAANCT,110.707,-6.68878,PECANGAAN,MC-JEPARA,CW-CJA-KUDEPARA,KUDUS,CENTRAL JAVA,"  8,425 ","  95,844,831 ",30,180,310
14JPA0040,CEMANOS_LS,110.68522,-6.66732,KEDUNG,MC-JEPARA,CW-CJA-KUDEPARA,KUDUS,CENTRAL JAVA,  -   ,  -   ,NULL,NULL,NULL
14JPA0041,MAMBAK_ST,110.68694,-6.56856,JEPARA,MC-JEPARA,CW-CJA-KUDEPARA,KUDUS,CENTRAL JAVA,  -   ,  -   ,NULL,NULL,NULL
14JPA0042,JEPARA_JPA_EP,110.68700,-6.61612,TAHUNAN,MC-JEPARA,CW-CJA-KUDEPARA,KUDUS,CENTRAL JAVA,  -   ,"  10,946,918 ",NULL,NULL,NULL
14JPA0043,KEDUNG_JPA_PL,110.68700,-6.67834,PECANGAAN,MC-JEPARA,CW-CJA-KUDEPARA,KUDUS,CENTRAL JAVA,  -   ,"  3,288,336 ",NULL,NULL,NULL
14JPA0044,LANGON_TAHUNAN_PL,110.68703,-6.63708,TAHUNAN,MC-JEPARA,CW-CJA-KUDEPARA,KUDUS,CENTRAL JAVA,  -   ,  -   ,NULL,NULL,NULL
14JPA0045,TENDOK_SARI_PL,110.68903,-6.62360,TAHUNAN,MC-JEPARA,CW-CJA-KUDEPARA,KUDUS,CENTRAL JAVA,  -   ,  -   ,NULL,NULL,NULL
14JPA0046,SUKOSONO_PS,110.69000,-6.65895,KEDUNG,MC-JEPARA,CW-CJA-KUDEPARA,KUDUS,CENTRAL JAVA,  -   ,"  2,374,938 ",NULL,NULL,NULL
14JPA0047,KAUMAN_JPA_HS,110.69160,-6.61820,TAHUNAN,MC-JEPARA,CW-CJA-KUDEPARA,KUDUS,CENTRAL JAVA,  -   ,"  6,502,676 ",NULL,NULL,NULL
14JPA0049,NGELING_PL,110.69206,-6.66850,PECANGAAN,MC-JEPARA,CW-CJA-KUDEPARA,KUDUS,CENTRAL JAVA,  -   ,  -   ,NULL,NULL,NULL
14JPA005,MAYONG,110.762,-6.75018,MAYONG,MC-JEPARA,CW-CJA-KUDEPARA,KUDUS,CENTRAL JAVA,"  15,293 ","  109,635,099 ",105,215,330
14JPA0050,KECAPINGESONG_MT,110.69223,-6.60648,TAHUNAN,MC-JEPARA,CW-CJA-KUDEPARA,KUDUS,CENTRAL JAVA,  -   ,  -   ,NULL,NULL,NULL
14JPA0051,SUMAWAL_MT,110.69400,-6.54743,MLONGGO,MC-JEPARA,CW-CJA-KUDEPARA,KUDUS,CENTRAL JAVA,  -   ,"  24,665,139 ",NULL,NULL,NULL
14JPA0052,KRAJAN_BOK_IJO_IB,110.69427,-6.62309,TAHUNAN,MC-JEPARA,CW-CJA-KUDEPARA,KUDUS,CENTRAL JAVA,  -   ,  -   ,NULL,NULL,NULL
14JPA0053,KARANGRANDU_PL,110.69447,-6.70623,PECANGAAN,MC-JEPARA,CW-CJA-KUDEPARA,KUDUS,CENTRAL JAVA,  -   ,  -   ,NULL,NULL,NULL
14JPA0054,BUGELRAYA_PL,110.69484,-6.68545,PECANGAAN,MC-JEPARA,CW-CJA-KUDEPARA,KUDUS,CENTRAL JAVA,  -   ,  -   ,NULL,NULL,NULL
14JPA0055,TROSO_TB,110.69527,-6.67841,PECANGAAN,MC-JEPARA,CW-CJA-KUDEPARA,KUDUS,CENTRAL JAVA,  -   ,"  3,393,430 ",NULL,NULL,NULL
14JPA0056,SENENANTAHUNAN_HS,110.69574,-6.61413,TAHUNAN,MC-JEPARA,CW-CJA-KUDEPARA,KUDUS,CENTRAL JAVA,  -   ,"  8,578,559 ",NULL,NULL,NULL
14JPA0057,KECAPIJEPARA_TB,110.69679,-6.59735,TAHUNAN,MC-JEPARA,CW-CJA-KUDEPARA,KUDUS,CENTRAL JAVA,  -   ,  -   ,NULL,NULL,NULL
14JPA0058,BUTHUK_BULUNGAN_MT,110.70013,-6.58413,PAKIS AJI,MC-JEPARA,CW-CJA-KUDEPARA,KUDUS,CENTRAL JAVA,  -   ,"  13,020,355 ",NULL,NULL,NULL
14JPA0059,TAHUNAN_JPA_PL,110.70100,-6.63046,TAHUNAN,MC-JEPARA,CW-CJA-KUDEPARA,KUDUS,CENTRAL JAVA,  -   ,  -   ,NULL,NULL,NULL
14JPA006,JEPARACITY,110.669,-6.59672,JEPARA,MC-JEPARA,CW-CJA-KUDEPARA,KUDUS,CENTRAL JAVA,"  3,511 ","  39,352,917 ",NULL,NULL,NULL
14JPA0060,JLBANGSRI_MLONGGO_JPA_PL,110.70209,-6.52956,MLONGGO,MC-JEPARA,CW-CJA-KUDEPARA,KUDUS,CENTRAL JAVA,  -   ,"  35,181,945 ",NULL,NULL,NULL
14JPA0061,KECAPI2_JPA_PL,110.70222,-6.61274,TAHUNAN,MC-JEPARA,CW-CJA-KUDEPARA,KUDUS,CENTRAL JAVA,  -   ,"  30,284,832 ",NULL,NULL,NULL
14JPA0062,KARANGGONDANG1_PL,110.70434,-6.49195,MLONGGO,MC-JEPARA,CW-CJA-KUDEPARA,KUDUS,CENTRAL JAVA,  -   ,"  15,165,499 ",NULL,NULL,NULL
14JPA0063,BULUNGAN_MT,110.70537,-6.59778,TAHUNAN,MC-JEPARA,CW-CJA-KUDEPARA,KUDUS,CENTRAL JAVA,  -   ,  -   ,NULL,NULL,NULL
14JPA0064,SIGIGEDE_HS,110.70531,-6.75542,WELAHAN,MC-JEPARA,CW-CJA-KUDEPARA,KUDUS,CENTRAL JAVA,  -   ,  -   ,NULL,NULL,NULL
14JPA0065,SROBYONG_HS,110.70600,-6.52122,MLONGGO,MC-JEPARA,CW-CJA-KUDEPARA,KUDUS,CENTRAL JAVA,  -   ,"  931,912 ",NULL,NULL,NULL
14JPA0066,NGABUL1_HS,110.70605,-6.63608,TAHUNAN,MC-JEPARA,CW-CJA-KUDEPARA,KUDUS,CENTRAL JAVA,  -   ,  -   ,NULL,NULL,NULL
14JPA0067,SUWAWAL_PL,110.70679,-6.55559,MLONGGO,MC-JEPARA,CW-CJA-KUDEPARA,KUDUS,CENTRAL JAVA,  -   ,  -   ,NULL,NULL,NULL
14JPA0068,PECANGAANCT_MT,110.70700,-6.68878,PECANGAAN,MC-JEPARA,CW-CJA-KUDEPARA,KUDUS,CENTRAL JAVA,  -   ,"  4,171,446 ",NULL,NULL,NULL
14JPA0069,TELUKWETAN_MT,110.70700,-6.74663,KALINYAMATAN,MC-JEPARA,CW-CJA-KUDEPARA,KUDUS,CENTRAL JAVA,  -   ,  -   ,NULL,NULL,NULL
14JPA007,BANGSRI,110.769,-6.52415,BANGSRI,MC-JEPARA,CW-CJA-KUDEPARA,KUDUS,CENTRAL JAVA,"  26,550 ","  87,963,651 ",60,240,320
14JPA0070,KARANGGONDANG3_PL,110.70744,-6.51347,MLONGGO,MC-JEPARA,CW-CJA-KUDEPARA,KUDUS,CENTRAL JAVA,  -   ,  -   ,NULL,NULL,NULL
14JPA0071,PEKALONGAN_JPA_PL,110.70757,-6.62233,BATEALIT,MC-JEPARA,CW-CJA-KUDEPARA,KUDUS,CENTRAL JAVA,  -   ,  -   ,NULL,NULL,NULL
14JPA0072,JLANDONGKCO_MT,110.70900,-6.69672,PECANGAAN,MC-JEPARA,CW-CJA-KUDEPARA,KUDUS,CENTRAL JAVA,  -   ,  -   ,NULL,NULL,NULL
14JPA0073,TROSO_JPA_PL,110.70907,-6.67859,PECANGAAN,MC-JEPARA,CW-CJA-KUDEPARA,KUDUS,CENTRAL JAVA,  -   ,  -   ,NULL,NULL,NULL
14JPA0074,KARANGGONDANG2_TB,110.70958,-6.50869,MLONGGO,MC-JEPARA,CW-CJA-KUDEPARA,KUDUS,CENTRAL JAVA,  -   ,"  40,252,028 ",NULL,NULL,NULL
14JPA0075,MLONGGO_EP,110.71000,-6.52730,MLONGGO,MC-JEPARA,CW-CJA-KUDEPARA,KUDUS,CENTRAL JAVA,  -   ,"  25,627,905 ",NULL,NULL,NULL
14JPA0076,WELAHDUKOH_PL,110.71117,-6.75757,WELAHAN,MC-JEPARA,CW-CJA-KUDEPARA,KUDUS,CENTRAL JAVA,  -   ,  -   ,NULL,NULL,NULL
14JPA0077,KEDUNGSARIMULYO_PL,110.71156,-6.78713,WELAHAN,MC-JEPARA,CW-CJA-KUDEPARA,KUDUS,CENTRAL JAVA,  -   ,"  2,560,728 ",NULL,NULL,NULL
14JPA0078,NGABUL_EP,110.71200,-6.64370,TAHUNAN,MC-JEPARA,CW-CJA-KUDEPARA,KUDUS,CENTRAL JAVA,  -   ,"  3,199,116 ",NULL,NULL,NULL
14JPA0079,BUGO_PL,110.71243,-6.77783,WELAHAN,MC-JEPARA,CW-CJA-KUDEPARA,KUDUS,CENTRAL JAVA,  -   ,  -   ,NULL,NULL,NULL
14JPA008,MLONGGO,110.71,-6.5273,MLONGGO,MC-JEPARA,CW-CJA-KUDEPARA,KUDUS,CENTRAL JAVA,"  19,702 ","  59,596,851 ",NULL,NULL,NULL
14JPA0080,JLKENARI_RAYA_PL,110.71305,-6.73422,KALINYAMATAN,MC-JEPARA,CW-CJA-KUDEPARA,KUDUS,CENTRAL JAVA,  -   ,  -   ,NULL,NULL,NULL
14JPA0081,JATILANANG_PL,110.71325,-6.66503,PECANGAAN,MC-JEPARA,CW-CJA-KUDEPARA,KUDUS,CENTRAL JAVA,  -   ,  -   ,NULL,NULL,NULL
14JPA0083,KENDENGSIDIALIT_PL,110.71410,-6.76665,WELAHAN,MC-JEPARA,CW-CJA-KUDEPARA,KUDUS,CENTRAL JAVA,  -   ,  -   ,NULL,NULL,NULL
14JPA0084,TAHUNANI_PL,110.71439,-6.63744,TAHUNAN,MC-JEPARA,CW-CJA-KUDEPARA,KUDUS,CENTRAL JAVA,  -   ,  -   ,NULL,NULL,NULL
14JPA0086,TUTUT_BAKERY_PS,110.71581,-6.71358,PECANGAAN,MC-JEPARA,CW-CJA-KUDEPARA,KUDUS,CENTRAL JAVA,  -   ,  -   ,NULL,NULL,NULL
14JPA0087,BAWU2_PL,110.71589,-6.62222,BATEALIT,MC-JEPARA,CW-CJA-KUDEPARA,KUDUS,CENTRAL JAVA,  -   ,  -   ,NULL,NULL,NULL
14JPA0088,MOJO_JPA_MT,110.71700,-6.62754,BATEALIT,MC-JEPARA,CW-CJA-KUDEPARA,KUDUS,CENTRAL JAVA,  -   ,"  14,617,986 ",NULL,NULL,NULL
14JPA009,WELAHAN,110.722,-6.78416,WELAHAN,MC-JEPARA,CW-CJA-KUDEPARA,KUDUS,CENTRAL JAVA,"  16,534 ","  84,169,384 ",60,280,350
14JPA0090,MARGOYOSOKALINYAMATAN_PL,110.71864,-6.72269,KALINYAMATAN,MC-JEPARA,CW-CJA-KUDEPARA,KUDUS,CENTRAL JAVA,  -   ,  -   ,NULL,NULL,NULL
14JPA0091,KRIYAN_HS,110.71924,-6.72977,KALINYAMATAN,MC-JEPARA,CW-CJA-KUDEPARA,KUDUS,CENTRAL JAVA,  -   ,  -   ,NULL,NULL,NULL
14JPA0094,MBADOWO_JPA_PL,110.72131,-6.77551,WELAHAN,MC-JEPARA,CW-CJA-KUDEPARA,KUDUS,CENTRAL JAVA,  -   ,"  10,666,117 ",NULL,NULL,NULL
14JPA0095,WELAHAN_JPA_MT,110.72200,-6.78416,WELAHAN,MC-JEPARA,CW-CJA-KUDEPARA,KUDUS,CENTRAL JAVA,  -   ,"  14,081,245 ",NULL,NULL,NULL
14JPA0096,BAWU_HS,110.72205,-6.62963,BATEALIT,MC-JEPARA,CW-CJA-KUDEPARA,KUDUS,CENTRAL JAVA,  -   ,  -   ,NULL,NULL,NULL
14JPA0097,ROBAYAN_HS,110.72211,-6.73806,KALINYAMATAN,MC-JEPARA,CW-CJA-KUDEPARA,KUDUS,CENTRAL JAVA,  -   ,  -   ,NULL,NULL,NULL
14JPA0099,BRANTAK_WELAHAN_PL,110.72247,-6.74606,WELAHAN,MC-JEPARA,CW-CJA-KUDEPARA,KUDUS,CENTRAL JAVA,  -   ,  -   ,NULL,NULL,NULL
14JPA010,JEPARAUTARA,110.685,-6.57446,JEPARA,MC-JEPARA,CW-CJA-KUDEPARA,KUDUS,CENTRAL JAVA,"  11,296 ","  60,114,499 ",NULL,NULL,NULL
14JPA0102,PECANGAAN_PL,110.72400,-6.73254,KALINYAMATAN,MC-JEPARA,CW-CJA-KUDEPARA,KUDUS,CENTRAL JAVA,  -   ,  -   ,NULL,NULL,NULL
14JPA0103,KALIPUCANG_PL,110.72421,-6.76546,WELAHAN,MC-JEPARA,CW-CJA-KUDEPARA,KUDUS,CENTRAL JAVA,  -   ,  -   ,NULL,NULL,NULL
14JPA0104,GEDANGAN_JPA_CM,110.72446,-6.78676,WELAHAN,MC-JEPARA,CW-CJA-KUDEPARA,KUDUS,CENTRAL JAVA,  -   ,  -   ,NULL,NULL,NULL
14JPA0106,GEMULUNG_ST,110.72591,-6.70441,PECANGAAN,MC-JEPARA,CW-CJA-KUDEPARA,KUDUS,CENTRAL JAVA,  -   ,  -   ,NULL,NULL,NULL
14JPA0107,KRASAK_PECANGAAN_TB,110.72636,-6.75833,WELAHAN,MC-JEPARA,CW-CJA-KUDEPARA,KUDUS,CENTRAL JAVA,  -   ,  -   ,NULL,NULL,NULL
14JPA0108,KALIPUNDANG_PL,110.72700,-6.73994,KALINYAMATAN,MC-JEPARA,CW-CJA-KUDEPARA,KUDUS,CENTRAL JAVA,  -   ,  -   ,NULL,NULL,NULL
14JPA011,BUGEL_TB,110.664,-6.66798,KEDUNG,MC-JEPARA,CW-CJA-KUDEPARA,KUDUS,CENTRAL JAVA,"  14,589 ","  95,004,123 ",10,100,170
14JPA0110,MARGOYOSO_JPA_MT,110.73031,-6.73513,KALINYAMATAN,MC-JEPARA,CW-CJA-KUDEPARA,KUDUS,CENTRAL JAVA,  -   ,  -   ,NULL,NULL,NULL
14JPA0112,ZARIES_PL,110.73226,-6.65146,BATEALIT,MC-JEPARA,CW-CJA-KUDEPARA,KUDUS,CENTRAL JAVA,  -   ,  -   ,NULL,NULL,NULL
14JPA0113,BAWU1_PL,110.73328,-6.63139,BATEALIT,MC-JEPARA,CW-CJA-KUDEPARA,KUDUS,CENTRAL JAVA,  -   ,  -   ,NULL,NULL,NULL
14JPA0114,KUANYAR1_PL,110.73457,-6.75441,MAYONG,MC-JEPARA,CW-CJA-KUDEPARA,KUDUS,CENTRAL JAVA,  -   ,  -   ,NULL,NULL,NULL
14JPA0116,LEBUAWU_CM,110.73500,-6.70447,PECANGAAN,MC-JEPARA,CW-CJA-KUDEPARA,KUDUS,CENTRAL JAVA,  -   ,"  3,969,932 ",NULL,NULL,NULL
14JPA0118,TALAHOME_MT,110.73762,-6.62875,BATEALIT,MC-JEPARA,CW-CJA-KUDEPARA,KUDUS,CENTRAL JAVA,  -   ,  -   ,NULL,NULL,NULL
14JPA0119,KUANYAR_CM,110.73800,-6.75071,MAYONG,MC-JEPARA,CW-CJA-KUDEPARA,KUDUS,CENTRAL JAVA,  -   ,"  8,826,881 ",NULL,NULL,NULL
14JPA012,MANTINGANJPR,110.663,-6.61778,TAHUNAN,MC-JEPARA,CW-CJA-KUDEPARA,KUDUS,CENTRAL JAVA,"  14,289 ","  34,551,739 ",NULL,NULL,NULL
14JPA0121,JLNAKULO_PELANG_IB,110.73890,-6.73977,MAYONG,MC-JEPARA,CW-CJA-KUDEPARA,KUDUS,CENTRAL JAVA,  -   ,  -   ,NULL,NULL,NULL
14JPA0124,DAMARJATI_JPA_PL,110.74555,-6.70679,KALINYAMATAN,MC-JEPARA,CW-CJA-KUDEPARA,KUDUS,CENTRAL JAVA,  -   ,  -   ,NULL,NULL,NULL
14JPA0125,SENGON_JPA_PL,110.74700,-6.74430,MAYONG,MC-JEPARA,CW-CJA-KUDEPARA,KUDUS,CENTRAL JAVA,  -   ,  -   ,NULL,NULL,NULL
14JPA0127,NGLAMPITAN_PL,110.74800,-6.67055,BATEALIT,MC-JEPARA,CW-CJA-KUDEPARA,KUDUS,CENTRAL JAVA,  -   ,  -   ,NULL,NULL,NULL
14JPA0129,SENGON_BUGEL_PL,110.75167,-6.74735,MAYONG,MC-JEPARA,CW-CJA-KUDEPARA,KUDUS,CENTRAL JAVA,  -   ,"  10,954,060 ",NULL,NULL,NULL
14JPA013,BONDOTJJATI,110.723,-6.48345,BANGSRI,MC-JEPARA,CW-CJA-KUDEPARA,KUDUS,CENTRAL JAVA,"  29,008 ","  72,464,152 ",0,150,300
14JPA0130,MAYONG_KIDUL_MT,110.75198,-6.76980,MAYONG,MC-JEPARA,CW-CJA-KUDEPARA,KUDUS,CENTRAL JAVA,  -   ,  -   ,NULL,NULL,NULL
14JPA0132,MAYONG_RAYA_JPA_PL,110.75335,-6.75760,MAYONG,MC-JEPARA,CW-CJA-KUDEPARA,KUDUS,CENTRAL JAVA,  -   ,  -   ,NULL,NULL,NULL
14JPA0133,BATEALIT_TB,110.75400,-6.63102,BATEALIT,MC-JEPARA,CW-CJA-KUDEPARA,KUDUS,CENTRAL JAVA,  -   ,  -   ,NULL,NULL,NULL
14JPA0136,MAYONG1_HS,110.75631,-6.75343,MAYONG,MC-JEPARA,CW-CJA-KUDEPARA,KUDUS,CENTRAL JAVA,  -   ,  -   ,NULL,NULL,NULL
14JPA0138,MAYONG_PL,110.76200,-6.75018,MAYONG,MC-JEPARA,CW-CJA-KUDEPARA,KUDUS,CENTRAL JAVA,  -   ,  -   ,NULL,NULL,NULL
14JPA0139,PELEMKEREP_PS,110.76253,-6.74079,MAYONG,MC-JEPARA,CW-CJA-KUDEPARA,KUDUS,CENTRAL JAVA,  -   ,  -   ,NULL,NULL,NULL
14JPA014,KELET_TB,110.909,-6.50514,KELING,MC-JEPARA,CW-CJA-KUDEPARA,KUDUS,CENTRAL JAVA,"  8,664 ","  99,025,284 ",10,150,290
14JPA0142,ABDUL_BASAR_PL,110.76575,-6.70514,MAYONG,MC-JEPARA,CW-CJA-KUDEPARA,KUDUS,CENTRAL JAVA,  -   ,"  1,827,828 ",NULL,NULL,NULL
14JPA0145,MAYONG_PULE_PL,110.76775,-6.72004,MAYONG,MC-JEPARA,CW-CJA-KUDEPARA,KUDUS,CENTRAL JAVA,  -   ,  -   ,NULL,NULL,NULL
14JPA0147,GOTRI_TB,110.77148,-6.76647,NALUMSARI,MC-JEPARA,CW-CJA-KUDEPARA,KUDUS,CENTRAL JAVA,  -   ,  -   ,NULL,NULL,NULL
14JPA015,BATEALIT_TB,110.754,-6.63102,BATEALIT,MC-JEPARA,CW-CJA-KUDEPARA,KUDUS,CENTRAL JAVA,"  16,147 ","  65,463,091 ",110,190,285
14JPA0150,RAGUKLAMPITAN2_GH,110.77506,-6.66401,BATEALIT,MC-JEPARA,CW-CJA-KUDEPARA,KUDUS,CENTRAL JAVA,  -   ,"  10,084,111 ",NULL,NULL,NULL
14JPA0151,DATAR_JPA_TB,110.77600,-6.72247,MAYONG,MC-JEPARA,CW-CJA-KUDEPARA,KUDUS,CENTRAL JAVA,  -   ,"  2,746,537 ",NULL,NULL,NULL
14JPA0152,GEMIRING_KIDUL2_PL,110.77738,-6.74691,NALUMSARI,MC-JEPARA,CW-CJA-KUDEPARA,KUDUS,CENTRAL JAVA,  -   ,  -   ,NULL,NULL,NULL
14JPA0154,KBN_KOSONG_TB,110.78400,-6.68900,MAYONG,MC-JEPARA,CW-CJA-KUDEPARA,KUDUS,CENTRAL JAVA,  -   ,  -   ,NULL,NULL,NULL
14JPA0157,NGELAYAP_PL,110.78741,-6.75391,NALUMSARI,MC-JEPARA,CW-CJA-KUDEPARA,KUDUS,CENTRAL JAVA,  -   ,  -   ,NULL,NULL,NULL
14JPA0158,BATEALITTIMUR_MT,110.78746,-6.62716,BATEALIT,MC-JEPARA,CW-CJA-KUDEPARA,KUDUS,CENTRAL JAVA,  -   ,  -   ,NULL,NULL,NULL
14JPA0160,KRENTENG_TB,110.79411,-6.73515,NALUMSARI,MC-JEPARA,CW-CJA-KUDEPARA,KUDUS,CENTRAL JAVA,  -   ,  -   ,NULL,NULL,NULL
14JPA0161,NALUMSARI_MT,110.79800,-6.74418,NALUMSARI,MC-JEPARA,CW-CJA-KUDEPARA,KUDUS,CENTRAL JAVA,  -   ,  -   ,NULL,NULL,NULL
14JPA0166,KRAJAN_NGETUK_GH,110.81631,-6.73094,NALUMSARI,MC-JEPARA,CW-CJA-KUDEPARA,KUDUS,CENTRAL JAVA,  -   ,"  7,934,337 ",NULL,NULL,NULL
14JPA0168,NALUMSARI2_PL,110.82381,-6.74394,NALUMSARI,MC-JEPARA,CW-CJA-KUDEPARA,KUDUS,CENTRAL JAVA,  -   ,  -   ,NULL,NULL,NULL
14JPA0169,BULU_WETAN_EB,110.82578,-6.69047,NALUMSARI,MC-JEPARA,CW-CJA-KUDEPARA,KUDUS,CENTRAL JAVA,  -   ,  -   ,NULL,NULL,NULL
14JPA0170,TULISKDS_EP,110.82800,-6.74494,NALUMSARI,MC-JEPARA,CW-CJA-KUDEPARA,KUDUS,CENTRAL JAVA,  -   ,  -   ,NULL,NULL,NULL
14JPA018,SENENAN_RT,110.684,-6.59512,TAHUNAN,MC-JEPARA,CW-CJA-KUDEPARA,KUDUS,CENTRAL JAVA,"  5,160 ","  27,376,660 ",NULL,NULL,NULL
14JPA019,KRGKEBAGUSAN_RT,110.658,-6.60568,JEPARA,MC-JEPARA,CW-CJA-KUDEPARA,KUDUS,CENTRAL JAVA,"  3,888 ","  18,159,667 ",NULL,NULL,NULL
14JPA020,POTROYUDAN_TB,110.678,-6.60546,TAHUNAN,MC-JEPARA,CW-CJA-KUDEPARA,KUDUS,CENTRAL JAVA,"  6,078 ","  53,461,315 ",NULL,NULL,NULL
14JPA021,STADION_KARTINI_RT,110.66608,-6.58371,JEPARA,MC-JEPARA,CW-CJA-KUDEPARA,KUDUS,CENTRAL JAVA,"  2,850 ","  28,751,157 ",NULL,NULL,NULL
14JPA022,SUKOSONO_PS,110.69,-6.65895,KEDUNG,MC-JEPARA,CW-CJA-KUDEPARA,KUDUS,CENTRAL JAVA,"  23,907 ","  51,193,983 ",10,90,160
14JPA023,KALIOMBO_LS,110.674,-6.72735,PECANGAAN,MC-JEPARA,CW-CJA-KUDEPARA,KUDUS,CENTRAL JAVA,"  11,154 ","  93,881,508 ",10,100,215
14JPA024,KUANYAR_RT,110.738,-6.75071,MAYONG,MC-JEPARA,CW-CJA-KUDEPARA,KUDUS,CENTRAL JAVA,"  4,723 ","  46,820,161 ",110,210,280
14JPA025,LEBUAWU_LS,110.735,-6.70447,PECANGAAN,MC-JEPARA,CW-CJA-KUDEPARA,KUDUS,CENTRAL JAVA,"  21,220 ","  84,165,223 ",25,185,290
14JPA026,SUMAWAL,110.694,-6.54743,MLONGGO,MC-JEPARA,CW-CJA-KUDEPARA,KUDUS,CENTRAL JAVA,"  11,012 ","  52,105,681 ",NULL,NULL,NULL
14JPA027,BANDENGAN_TB,110.665,-6.56412,JEPARA,MC-JEPARA,CW-CJA-KUDEPARA,KUDUS,CENTRAL JAVA,"  7,889 ","  25,667,671 ",NULL,NULL,NULL
14JPA028,V_KARIMUNJAWA,110.435,-5.87239,KARIMUNJAWA,MC-JEPARA,CW-CJA-KUDEPARA,KUDUS,CENTRAL JAVA,"  4,043 ","  580,170 ",140,240,330
14JPA029,KEDUNG,110.687,-6.67834,PECANGAAN,MC-JEPARA,CW-CJA-KUDEPARA,KUDUS,CENTRAL JAVA,"  12,242 ","  72,519,025 ",50,240,320
14JPA030,KELINGSM,110.866,-6.48222,KELING,MC-JEPARA,CW-CJA-KUDEPARA,KUDUS,CENTRAL JAVA,"  14,390 ","  52,639,767 ",90,230,340
14JPA031,KELINGUTARA_TB,110.883,-6.45605,DONOROJO,MC-JEPARA,CW-CJA-KUDEPARA,KUDUS,CENTRAL JAVA,"  10,484 ","  61,423,235 ",165,250,345
14JPA032,KEMBANG_TB,110.803,-6.50461,KEMBANG,MC-JEPARA,CW-CJA-KUDEPARA,KUDUS,CENTRAL JAVA,"  32,120 ","  51,994,034 ",70,160,225
14JPA033,NALUMSARI,110.798,-6.74418,NALUMSARI,MC-JEPARA,CW-CJA-KUDEPARA,KUDUS,CENTRAL JAVA,"  7,523 ","  79,927,635 ",90,210,300
14JPA034,PLTUTJJATI_TB,110.743,-6.45705,KEMBANG,MC-JEPARA,CW-CJA-KUDEPARA,KUDUS,CENTRAL JAVA,"  8,681 ","  91,886,437 ",70,240,320
14JPA035,MOJO,110.71742,-6.62754,BATEALIT,MC-JEPARA,CW-CJA-KUDEPARA,KUDUS,CENTRAL JAVA,"  10,061 ","  81,792,855 ",20,190,310
14JPA039,NGLAMPITAN_PL,110.74761,-6.67055,BATEALIT,MC-JEPARA,CW-CJA-KUDEPARA,KUDUS,CENTRAL JAVA,"  32,028 ","  74,338,031 ",20,145,315
14JPA040,BALONG_PL,110.798,-6.46045,KEMBANG,MC-JEPARA,CW-CJA-KUDEPARA,KUDUS,CENTRAL JAVA,"  25,274 ","  48,425,874 ",20,120,250
14JPA041,LEBAKPL_MT,110.745,-6.58792,PAKIS AJI,MC-JEPARA,CW-CJA-KUDEPARA,KUDUS,CENTRAL JAVA,"  35,299 ","  87,911,847 ",75,160,225
14JPA042,KEDUNGMLNGJPA_TB,110.642,-6.71186,KEDUNG,MC-JEPARA,CW-CJA-KUDEPARA,KUDUS,CENTRAL JAVA,"  24,289 ","  107,544,401 ",20,130,230
14JPA043,DAMARWULAN_TB,110.904,-6.54582,KELING,MC-JEPARA,CW-CJA-KUDEPARA,KUDUS,CENTRAL JAVA,"  16,384 ","  39,962,348 ",20,125,300
14JPA044,CLERING_PL,110.951007,-6.418468,DONOROJO,MC-JEPARA,CW-CJA-KUDEPARA,KUDUS,CENTRAL JAVA,"  15,041 ","  29,459,763 ",60,220,335
14JPA045,TELUKWETAN_MT,110.707,-6.74663,KALINYAMATAN,MC-JEPARA,CW-CJA-KUDEPARA,KUDUS,CENTRAL JAVA,"  13,081 ","  116,648,401 ",90,160,325
14JPA046,KALIPUCANG_PL,110.724,-6.76552,WELAHAN,MC-JEPARA,CW-CJA-KUDEPARA,KUDUS,CENTRAL JAVA,"  15,539 ","  72,118,892 ",100,180,260
14JPA047,DATAR_TB,110.77593,-6.72247,MAYONG,MC-JEPARA,CW-CJA-KUDEPARA,KUDUS,CENTRAL JAVA,"  38,433 ","  60,658,378 ",20,130,290
14JPA048,KECAPI_MT,110.705,-6.59783,TAHUNAN,MC-JEPARA,CW-CJA-KUDEPARA,KUDUS,CENTRAL JAVA,"  15,503 ","  87,436,645 ",20,90,275
14JPA049,SIDOREKSO_TB,110.772,-6.76658,NALUMSARI,MC-JEPARA,CW-CJA-KUDEPARA,KUDUS,CENTRAL JAVA,"  14,167 ","  105,941,693 ",50,180,280
14JPA050,SEKURO_MT,110.736,-6.53005,MLONGGO,MC-JEPARA,CW-CJA-KUDEPARA,KUDUS,CENTRAL JAVA,"  32,994 ","  48,992,513 ",90,190,275
14JPA051,KALIPUNDANG_PL,110.727,-6.73994,KALINYAMATAN,MC-JEPARA,CW-CJA-KUDEPARA,KUDUS,CENTRAL JAVA,"  8,477 ","  72,409,865 ",90,240,310
14JPA052,TAHUNAN_PL,110.701,-6.63046,TAHUNAN,MC-JEPARA,CW-CJA-KUDEPARA,KUDUS,CENTRAL JAVA,"  9,296 ","  55,833,068 ",150,250,320
14JPA053,JL_ANDONGKCO_MT,110.709,-6.69672,PECANGAAN,MC-JEPARA,CW-CJA-KUDEPARA,KUDUS,CENTRAL JAVA,"  15,426 ","  121,046,305 ",70,155,230
14JPA054,GEMAHARJO1_TB,110.679,-6.58794,JEPARA,MC-JEPARA,CW-CJA-KUDEPARA,KUDUS,CENTRAL JAVA,"  4,595 ","  24,215,362 ",NULL,NULL,NULL
14JPA055,KALIKANAL_CM,110.658,-6.59778,JEPARA,MC-JEPARA,CW-CJA-KUDEPARA,KUDUS,CENTRAL JAVA,"  5,404 ","  54,861,365 ",60,125,355
14JPA060,SENGON_JPA_PL,110.747,-6.7443,MAYONG,MC-JEPARA,CW-CJA-KUDEPARA,KUDUS,CENTRAL JAVA,"  2,781 ","  156,906,045 ",105,240,340
14JPA063,JL_RA_KARTINI_PANGGANG_JPA_TB,110.66723,-6.59181,JEPARA,MC-JEPARA,CW-CJA-KUDEPARA,KUDUS,CENTRAL JAVA,"  3,443 ","  50,063,465 ",45,160,320
14JPA064,TEGALSAMBI_JPA_PL,110.65484,-6.61827,TAHUNAN,MC-JEPARA,CW-CJA-KUDEPARA,KUDUS,CENTRAL JAVA,"  9,358 ","  69,618,508 ",55,205,300
14JPA065,TAHUNAN2_JPA_CM,110.67755,-6.61855,TAHUNAN,MC-JEPARA,CW-CJA-KUDEPARA,KUDUS,CENTRAL JAVA,"  5,808 ","  54,199,524 ",90,180,290
14JPA066,SOWAN_LOR_JPA_IB,110.67,-6.6845,KEDUNG,MC-JEPARA,CW-CJA-KUDEPARA,KUDUS,CENTRAL JAVA,"  10,334 ","  70,161,322 ",25,180,250
14JPA067,TROSO_JPA_PL,110.70907,-6.67859,PECANGAAN,MC-JEPARA,CW-CJA-KUDEPARA,KUDUS,CENTRAL JAVA,"  7,770 ","  72,790,166 ",20,130,300
14JPA068,JL_KENARI_RAYA_JPA_PL,110.71305,-6.73422,KALINYAMATAN,MC-JEPARA,CW-CJA-KUDEPARA,KUDUS,CENTRAL JAVA,"  15,914 ","  89,703,295 ",40,145,220
14JPA069,JL_NAKULO_PELANG_JPA_IB,110.7389,-6.73977,MAYONG,MC-JEPARA,CW-CJA-KUDEPARA,KUDUS,CENTRAL JAVA,"  9,009 ","  113,436,735 ",50,220,320
14JPA070,JL_PLTU_TUBANAN_JPA_ST,110.7675,-6.46213,KEMBANG,MC-JEPARA,CW-CJA-KUDEPARA,KUDUS,CENTRAL JAVA,"  12,796 ","  19,914,750 ",120,190,295
14JPA072,JL_RAYA_KELING_JPA_MT,110.89211,-6.48506,KELING,MC-JEPARA,CW-CJA-KUDEPARA,KUDUS,CENTRAL JAVA,"  6,936 ","  17,025,138 ",145,270,345
14JPA074,PENDEM_KEMBANG_JPA_PL,110.816222,-6.517361,KEMBANG,MC-JEPARA,CW-CJA-KUDEPARA,KUDUS,CENTRAL JAVA,"  18,971 ","  54,738,532 ",100,225,310
14JPA077,BANYUMANIS_JPA_ST,110.891167,-6.433333,DONOROJO,MC-JEPARA,CW-CJA-KUDEPARA,KUDUS,CENTRAL JAVA,"  18,472 ","  17,657,256 ",340,120,190
14JPA081,JL_BANGSRI_MLONGGO_JPA_PL,110.70209,-6.52956,MLONGGO,MC-JEPARA,CW-CJA-KUDEPARA,KUDUS,CENTRAL JAVA,"  14,123 ","  28,408,475 ",NULL,NULL,NULL
14JPA084,BANDENGAN_JPA_CM,110.6751,-6.56977,JEPARA,MC-JEPARA,CW-CJA-KUDEPARA,KUDUS,CENTRAL JAVA,"  4,577 ","  21,082,465 ",NULL,NULL,NULL
14JPA085,JL_GUDANG_SAWO_TEPUS_JPA_IB,110.67687,-6.57812,JEPARA,MC-JEPARA,CW-CJA-KUDEPARA,KUDUS,CENTRAL JAVA,"  2,798 ","  29,321,471 ",10,125,260
14JPA086,JOBOKUTO_JPA_PS,110.65868,-6.58551,JEPARA,MC-JEPARA,CW-CJA-KUDEPARA,KUDUS,CENTRAL JAVA,"  6,726 ","  86,749,033 ",10,150,260
14JPA087,JL_KH_MOLIKI_JPA_PL,110.67567,-6.59186,JEPARA,MC-JEPARA,CW-CJA-KUDEPARA,KUDUS,CENTRAL JAVA,"  1,819 ","  24,611,669 ",NULL,NULL,NULL
14JPA088,BLINGOH_JPA_TB,110.91594,-6.48034,DONOROJO,MC-JEPARA,CW-CJA-KUDEPARA,KUDUS,CENTRAL JAVA,"  13,151 ","  26,094,362 ",30,185,260
14JPA089,PATROYUDAN_JPA_PL,110.67444,-6.60022,JEPARA,MC-JEPARA,CW-CJA-KUDEPARA,KUDUS,CENTRAL JAVA,"  3,934 ","  15,419,684 ",NULL,NULL,NULL
14JPA093,KRAJAN_NGETUK_JPA_GH,110.81631,-6.73094,NALUMSARI,MC-JEPARA,CW-CJA-KUDEPARA,KUDUS,CENTRAL JAVA,"  22,382 ","  45,096,592 ",155,230,320
14JPA095,JATILANANG_JPA_PL,110.71325,-6.66503,PECANGAAN,MC-JEPARA,CW-CJA-KUDEPARA,KUDUS,CENTRAL JAVA,"  20,110 ","  69,935,064 ",0,120,240
14JPA098,KEDUNG_CINO_JPA_MT,110.67085,-6.55812,JEPARA,MC-JEPARA,CW-CJA-KUDEPARA,KUDUS,CENTRAL JAVA,"  13,549 ","  33,204,227 ",NULL,NULL,NULL
14JPA099,KEDUNGSARIMULYO_JPA_PL,110.71156,-6.78713,WELAHAN,MC-JEPARA,CW-CJA-KUDEPARA,KUDUS,CENTRAL JAVA,"  18,873 ","  51,877,094 ",20,150,225
14JPA100,BUTHUK_BULUNGAN_JPA_MT,110.70013,-6.58413,PAKIS AJI,MC-JEPARA,CW-CJA-KUDEPARA,KUDUS,CENTRAL JAVA,"  17,025 ","  66,680,741 ",10,100,200
14JPA102,TEDUNAN_2_JPA_BM,110.65699,-6.71182,KEDUNG,MC-JEPARA,CW-CJA-KUDEPARA,KUDUS,CENTRAL JAVA,"  4,814 ","  78,084,211 ",115,180,255
14JPA103,SUWAWAL_JPA_PL,110.70679,-6.55559,MLONGGO,MC-JEPARA,CW-CJA-KUDEPARA,KUDUS,CENTRAL JAVA,"  15,741 ","  83,993,383 ",105,285,350
14JPA104,GEMULUNG_JPA_ST,110.72591,-6.70441,PECANGAAN,MC-JEPARA,CW-CJA-KUDEPARA,KUDUS,CENTRAL JAVA,"  12,531 ","  94,095,230 ",55,145,290
14JPA105,KRAJAN_BOK_IJO_JPA_IB,110.69427,-6.62309,TAHUNAN,MC-JEPARA,CW-CJA-KUDEPARA,KUDUS,CENTRAL JAVA,"  10,136 ","  53,554,784 ",30,220,320
14JPA106,TROSO_2_JPA_TB,110.69527,-6.67841,PECANGAAN,MC-JEPARA,CW-CJA-KUDEPARA,KUDUS,CENTRAL JAVA,"  9,269 ","  75,840,918 ",35,160,240
14JPA108,SENGON_BUGEL_PL,110.751665,-6.747351,MAYONG,MC-JEPARA,CW-CJA-KUDEPARA,KUDUS,CENTRAL JAVA,  -   ,"  55,465,390 ",60,150,230
14JPA109,PURI_KENCANA_JPA_IB,110.67061,-6.63877,KEDUNG,MC-JEPARA,CW-CJA-KUDEPARA,KUDUS,CENTRAL JAVA,  -   ,"  55,871,836 ",0,200,270
14JPA110,PELEMKEREP_JPA_PS,110.76253,-6.74079,MAYONG,MC-JEPARA,CW-CJA-KUDEPARA,KUDUS,CENTRAL JAVA,  -   ,"  115,297,330 ",70,155,340
14JPA111,WELAHDUKOH_PL,110.71117,-6.75757,WELAHAN,MC-JEPARA,CW-CJA-KUDEPARA,KUDUS,CENTRAL JAVA,  -   ,"  70,709,134 ",120,190,270
14JPA113,BANJAR_AGUNG_JPA_CM,110.787639,-6.512972,BANGSRI,MC-JEPARA,CW-CJA-KUDEPARA,KUDUS,CENTRAL JAVA,  -   ,"  28,623,938 ",85,185,250
14JPA114,BANYUMANIS_JPA_PL,110.91934,-6.40744,DONOROJO,MC-JEPARA,CW-CJA-KUDEPARA,KUDUS,CENTRAL JAVA,  -   ,"  12,887,584 ",110,260,330
14JPA115,DERMOLO_JPA_MT,110.83193,-6.48243,KEMBANG,MC-JEPARA,CW-CJA-KUDEPARA,KUDUS,CENTRAL JAVA,  -   ,"  35,018,130 ",30,140,270
14JPA116,DONGOS_KEDUNG_GF_SB_PL,110.68044,-6.66022,KEDUNG,MC-JEPARA,CW-CJA-KUDEPARA,KUDUS,CENTRAL JAVA,  -   ,"  79,029,323 ",40,250,320
14JPA117,GEMIRING_KIDUL2_JPA_PL,110.77738,-6.74691,NALUMSARI,MC-JEPARA,CW-CJA-KUDEPARA,KUDUS,CENTRAL JAVA,  -   ,"  65,287,345 ",45,140,245
14JPA118,KARANGGONDANG1_JPA_PL,110.70434,-6.49195,MLONGGO,MC-JEPARA,CW-CJA-KUDEPARA,KUDUS,CENTRAL JAVA,  -   ,"  10,636,965 ",NULL,NULL,NULL
14JPA119,KARANGGONDANG2_JPA_TB,110.70958,-6.50869,MLONGGO,MC-JEPARA,CW-CJA-KUDEPARA,KUDUS,CENTRAL JAVA,  -   ,"  29,356,787 ",NULL,NULL,NULL
14JPA120,KECAPI2_JPA_PL,110.70222,-6.61274,TAHUNAN,MC-JEPARA,CW-CJA-KUDEPARA,KUDUS,CENTRAL JAVA,  -   ,"  25,470,295 ",NULL,NULL,NULL
14JPA121,RAGUKLAMPITAN2_JPA_GH,110.77506,-6.66401,BATEALIT,MC-JEPARA,CW-CJA-KUDEPARA,KUDUS,CENTRAL JAVA,  -   ,"  52,554,832 ",35,220,290
14JPA122,SEKURO_JPA_PL,110.72295,-6.52188,MLONGGO,MC-JEPARA,CW-CJA-KUDEPARA,KUDUS,CENTRAL JAVA,  -   ,"  72,344,136 ",155,225,315
14JPA123,KRSAK_BANGSRI_JPA_IB,110.7515,-6.53177,BANGSRI,MC-JEPARA,CW-CJA-KUDEPARA,KUDUS,CENTRAL JAVA,  -   ,"  63,643,792 ",20,90,190
14JPA124,MAYONG_KIDUL_JPA_MT,110.75198,-6.7698,MAYONG,MC-JEPARA,CW-CJA-KUDEPARA,KUDUS,CENTRAL JAVA,  -   ,"  55,339,095 ",35,170,280
14JPA125,GAYUNGAN_BANGSRI_MT,110.76021,-6.555,BANGSRI,MC-JEPARA,CW-CJA-KUDEPARA,KUDUS,CENTRAL JAVA,  -   ,"  46,438,199 ",45,205,305
14JPA126,TUTUT_BAKERY_JPA_PS,110.71581,-6.71358,PECANGAAN,MC-JEPARA,CW-CJA-KUDEPARA,KUDUS,CENTRAL JAVA,  -   ,"  114,366,545 ",100,175,350
14JPA127,MAYONG_RAYA_JPA_PL,110.75335,-6.7576,MAYONG,MC-JEPARA,CW-CJA-KUDEPARA,KUDUS,CENTRAL JAVA,  -   ,"  68,175,929 ",40,175,300
14JPA128,KEDUNGLEPER_JPA_TB,110.7652,-6.50828,BANGSRI,MC-JEPARA,CW-CJA-KUDEPARA,KUDUS,CENTRAL JAVA,  -   ,"  35,088,039 ",0,150,215
14JPA129,NURUL_ULUM_JPA_PL,110.72228,-6.54853,PAKIS AJI,MC-JEPARA,CW-CJA-KUDEPARA,KUDUS,CENTRAL JAVA,  -   ,"  55,522,110 ",50,140,310
14JPA130,TALAHOME_JPA_MT,110.73762,-6.62875,BATEALIT,MC-JEPARA,CW-CJA-KUDEPARA,KUDUS,CENTRAL JAVA,  -   ,"  76,529,692 ",5,95,280
14JPA131,ABDUL_BASAR_JPA_PL,110.76575,-6.705139,MAYONG,MC-JEPARA,CW-CJA-KUDEPARA,KUDUS,CENTRAL JAVA,  -   ,"  40,433,026 ",190,260,330
14JPA132,KETUNG_SARI_JPA_MT,110.74738,-6.47468,KEMBANG,MC-JEPARA,CW-CJA-KUDEPARA,KUDUS,CENTRAL JAVA,  -   ,"  56,206,193 ",110,235,350
14JPA133,ZARIES_JPA_PL,110.73226,-6.65146,BATEALIT,MC-JEPARA,CW-CJA-KUDEPARA,KUDUS,CENTRAL JAVA,  -   ,"  39,862,254 ",50,225,325
14JPA134,KALIPUCANG_WETAN_JPA_TB,110.72644,-6.75639,WELAHAN,MC-JEPARA,CW-CJA-KUDEPARA,KUDUS,CENTRAL JAVA,  -   ,"  68,843,669 ",170,280,350
14JPA135,KBN_KOSONG_JPA_IB,110.784,-6.689,MAYONG,MC-JEPARA,CW-CJA-KUDEPARA,KUDUS,CENTRAL JAVA,  -   ,"  58,826,575 ",90,190,255
14JPA136,BULU_WETAN_JPA_EB,110.825777,-6.690471,NALUMSARI,MC-JEPARA,CW-CJA-KUDEPARA,KUDUS,CENTRAL JAVA,  -   ,"  45,113,002 ",110,160,340
14JPA137,NGATEMO_JPA_MT,110.72525,-6.58183,PAKIS AJI,MC-JEPARA,CW-CJA-KUDEPARA,KUDUS,CENTRAL JAVA,  -   ,"  47,586,489 ",130,255,325
14JPA138,WARONG_KOBONG_JPA_PL,110.78584,-6.49331,KEMBANG,MC-JEPARA,CW-CJA-KUDEPARA,KUDUS,CENTRAL JAVA,  -   ,"  26,786,822 ",30,120,225
14JPA139,TUNAHAN_JPA_MT,110.85539,-6.51289,KELING,MC-JEPARA,CW-CJA-KUDEPARA,KUDUS,CENTRAL JAVA,  -   ,"  37,307,539 ",70,245,340
14JPA140,KEMAH_BAKTI_JPA_TB,110.65446,-6.558,JEPARA,MC-JEPARA,CW-CJA-KUDEPARA,KUDUS,CENTRAL JAVA,  -   ,"  18,724,505 ",NULL,NULL,NULL
14JPA142,LEBAK_NGANCAR_JPA_IB,110.75527,-6.60046,PAKIS AJI,MC-JEPARA,CW-CJA-KUDEPARA,KUDUS,CENTRAL JAVA,  -   ,"  68,317,889 ",165,235,360
14JPA144,MBADOWO_JPA_PL,110.72131,-6.77551,WELAHAN,MC-JEPARA,CW-CJA-KUDEPARA,KUDUS,CENTRAL JAVA,  -   ,"  61,946,265 ",60,240,355
14JPA145,KARANGRANDU_JPA_PL,110.69447,-6.70623,PECANGAAN,MC-JEPARA,CW-CJA-KUDEPARA,KUDUS,CENTRAL JAVA,  -   ,"  51,702,928 ",60,125,190
14JPA147,MAYONG_PULE_JPA_PL,110.76775,-6.72004,MAYONG,MC-JEPARA,CW-CJA-KUDEPARA,KUDUS,CENTRAL JAVA,  -   ,"  70,748,637 ",50,225,300
14JPA148,CEMANOS_JPA_LS,110.68522,-6.66732,KEDUNG,MC-JEPARA,CW-CJA-KUDEPARA,KUDUS,CENTRAL JAVA,  -   ,"  63,405,826 ",130,220,285
14JPA149,KRENTENG_JPA_TB,110.79411,-6.73515,NALUMSARI,MC-JEPARA,CW-CJA-KUDEPARA,KUDUS,CENTRAL JAVA,  -   ,"  44,047,977 ",60,230,300
14JPA150,NGELAYAP_JPA_PL,110.78741,-6.75391,NALUMSARI,MC-JEPARA,CW-CJA-KUDEPARA,KUDUS,CENTRAL JAVA,  -   ,"  63,182,945 ",45,135,200
14JPA151,MBREGAT_JPA_PL,110.66511,-6.61268,TAHUNAN,MC-JEPARA,CW-CJA-KUDEPARA,KUDUS,CENTRAL JAVA,  -   ,"  23,329,591 ",NULL,NULL,NULL
14JPA152,BULUNGAN_JPA_IB,110.78731,-6.57952,PAKIS AJI,MC-JEPARA,CW-CJA-KUDEPARA,KUDUS,CENTRAL JAVA,  -   ,"  27,735,074 ",215,280,345
14JPA153,PLATAR_JPA_MT,110.64881,-6.62781,TAHUNAN,MC-JEPARA,CW-CJA-KUDEPARA,KUDUS,CENTRAL JAVA,  -   ,"  35,325,557 ",90,200,280
14JPA154,BUGELRAYA_JPA_PL,110.69322,-6.68518,PECANGAAN,MC-JEPARA,CW-CJA-KUDEPARA,KUDUS,CENTRAL JAVA,  -   ,"  51,910,458 ",65,130,340
14JPA156,MINDAHAN_KIDUL_JPA_TB,110.75515,-6.65082,BATEALIT,MC-JEPARA,CW-CJA-KUDEPARA,KUDUS,CENTRAL JAVA,  -   ,"  42,003,421 ",40,180,330
14JPA157,SUWAWAL_TIMUR_JPA_MT,110.7204,-6.56705,PAKIS AJI,MC-JEPARA,CW-CJA-KUDEPARA,KUDUS,CENTRAL JAVA,  -   ,"  45,589,885 ",85,255,335
14JPA158,JATISARILOR_JPA_MT,110.77339,-6.73611,NALUMSARI,MC-JEPARA,CW-CJA-KUDEPARA,KUDUS,CENTRAL JAVA,  -   ,"  35,621,479 ",120,200,265
14JPA159,MAMBAK_JPA_MT,110.69165,-6.55560,PAKIS AJI,MC-JEPARA,CW-CJA-KUDEPARA,KUDUS,CENTRAL JAVA,  -   ,"  28,132,435 ",115,185,325
14JPA160,GENENG_JPA_MT,110.73462,-6.69059,BATEALIT,MC-JEPARA,CW-CJA-KUDEPARA,KUDUS,CENTRAL JAVA,  -   ,"  35,964,847 ",65,240,310
14KDS031,TULISKDS,110.828,-6.74494,NALUMSARI,MC-JEPARA,CW-CJA-KUDEPARA,KUDUS,CENTRAL JAVA,"  5,957 ","  92,862,508 ",60,190,320
14COW001,MBTS_SUNANKDS,110.836,-6.80678,KOTA KUDUS,MC-KUDUS,CW-CJA-KUDEPARA,KUDUS,CENTRAL JAVA,"  7,204 ","  55,115,283 ",140,220,330
14COW023,M_MEJOBO,110.882,-6.82907,MEJOBO,MC-KUDUS,CW-CJA-KUDEPARA,KUDUS,CENTRAL JAVA,"  6,170 ","  16,716,585 ",NULL,NULL,NULL
14KDS0001,BLIMBING_LOR_MT,110.76689,-6.77590,KALIWUNGU,MC-KUDUS,CW-CJA-KUDEPARA,KUDUS,CENTRAL JAVA,  -   ,  -   ,NULL,NULL,NULL
14KDS0002,SIDOREKSO_KDS_TB,110.77300,-6.79079,KALIWUNGU,MC-KUDUS,CW-CJA-KUDEPARA,KUDUS,CENTRAL JAVA,  -   ,"  54,440,622 ",NULL,NULL,NULL
14KDS0003,TRENGGULI_KDS_MT,110.77998,-6.77108,KALIWUNGU,MC-KUDUS,CW-CJA-KUDEPARA,KUDUS,CENTRAL JAVA,  -   ,  -   ,NULL,NULL,NULL
14KDS0004,KEDUNG_DOWO_MT,110.78672,-6.79996,KALIWUNGU,MC-KUDUS,CW-CJA-KUDEPARA,KUDUS,CENTRAL JAVA,  -   ,"  21,564,545 ",NULL,NULL,NULL
14KDS0005,SIDOMULYOKD_MT,110.78800,-6.93740,UNDAAN,MC-KUDUS,CW-CJA-KUDEPARA,KUDUS,CENTRAL JAVA,  -   ,"  10,629,427 ",NULL,NULL,NULL
14KDS0006,SDKALIWUNGU_IB,110.79065,-6.78084,KALIWUNGU,MC-KUDUS,CW-CJA-KUDEPARA,KUDUS,CENTRAL JAVA,  -   ,"  69,561,071 ",NULL,NULL,NULL
14KDS0007,ETS_JAYA_PL,110.79253,-6.92323,UNDAAN,MC-KUDUS,CW-CJA-KUDEPARA,KUDUS,CENTRAL JAVA,  -   ,"  8,758,404 ",NULL,NULL,NULL
14KDS0008,JETAK_EP,110.79400,-6.78886,KALIWUNGU,MC-KUDUS,CW-CJA-KUDEPARA,KUDUS,CENTRAL JAVA,  -   ,"  36,784,075 ",NULL,NULL,NULL
14KDS0009,UNDAAN_KDS_TB,110.79700,-6.91397,UNDAAN,MC-KUDUS,CW-CJA-KUDEPARA,KUDUS,CENTRAL JAVA,  -   ,"  20,482,547 ",NULL,NULL,NULL
14KDS0011,KALIWUNGU_KDS_ST,110.79930,-6.77735,KALIWUNGU,MC-KUDUS,CW-CJA-KUDEPARA,KUDUS,CENTRAL JAVA,  -   ,  -   ,NULL,NULL,NULL
14KDS0012,GARUNG_LOR_MT,110.79967,-6.79916,KALIWUNGU,MC-KUDUS,CW-CJA-KUDEPARA,KUDUS,CENTRAL JAVA,  -   ,  -   ,NULL,NULL,NULL
14KDS0013,GETASRABI_PL,110.80800,-6.76479,GEBOG,MC-KUDUS,CW-CJA-KUDEPARA,KUDUS,CENTRAL JAVA,  -   ,  -   ,NULL,NULL,NULL
14KDS0014,BLOLO_TB,110.80846,-6.78984,KALIWUNGU,MC-KUDUS,CW-CJA-KUDEPARA,KUDUS,CENTRAL JAVA,  -   ,"  52,851,355 ",NULL,NULL,NULL
14KDS0015,GETASSRABI_MT,110.81033,-6.76903,GEBOG,MC-KUDUS,CW-CJA-KUDEPARA,KUDUS,CENTRAL JAVA,  -   ,  -   ,NULL,NULL,NULL
14KDS0016,GARUNGLOR_TB,110.81200,-6.79839,KALIWUNGU,MC-KUDUS,CW-CJA-KUDEPARA,KUDUS,CENTRAL JAVA,  -   ,"  24,773,906 ",NULL,NULL,NULL
14KDS0017,PASURUHAN_TB,110.81431,-6.82401,JATI,MC-KUDUS,CW-CJA-KUDEPARA,KUDUS,CENTRAL JAVA,  -   ,"  6,050,735 ",NULL,NULL,NULL
14KDS0018,UNDAAN_TB,110.81694,-6.88331,UNDAAN,MC-KUDUS,CW-CJA-KUDEPARA,KUDUS,CENTRAL JAVA,  -   ,  -   ,NULL,NULL,NULL
14KDS0019,PRAMBATANLOR1_MT,110.81719,-6.80822,KALIWUNGU,MC-KUDUS,CW-CJA-KUDEPARA,KUDUS,CENTRAL JAVA,  -   ,  -   ,NULL,NULL,NULL
14KDS002,KUDUSTM,110.860587,-6.803719,KOTA KUDUS,MC-KUDUS,CW-CJA-KUDEPARA,KUDUS,CENTRAL JAVA,"  8,913 ","  28,350 ",NULL,NULL,NULL
14KDS0020,PRAMBATANLOR2_PL,110.81732,-6.79871,KALIWUNGU,MC-KUDUS,CW-CJA-KUDEPARA,KUDUS,CENTRAL JAVA,  -   ,"  38,314,254 ",NULL,NULL,NULL
14KDS0021,JATIWETAN_MT,110.82100,-6.84520,JATI,MC-KUDUS,CW-CJA-KUDEPARA,KUDUS,CENTRAL JAVA,  -   ,"  10,646,563 ",NULL,NULL,NULL
14KDS0022,JLPRAMBATAN_LOR_TB,110.82119,-6.80212,KALIWUNGU,MC-KUDUS,CW-CJA-KUDEPARA,KUDUS,CENTRAL JAVA,  -   ,  -   ,NULL,NULL,NULL
14KDS0023,PAURUHAN_LOR_MT,110.82249,-6.82066,JATI,MC-KUDUS,CW-CJA-KUDEPARA,KUDUS,CENTRAL JAVA,  -   ,"  7,326,315 ",NULL,NULL,NULL
14KDS0024,PRKUDUS_EP,110.82261,-6.83639,JATI,MC-KUDUS,CW-CJA-KUDEPARA,KUDUS,CENTRAL JAVA,  -   ,  -   ,NULL,NULL,NULL
14KDS0025,KLUMPIT_CM,110.82333,-6.75875,GEBOG,MC-KUDUS,CW-CJA-KUDEPARA,KUDUS,CENTRAL JAVA,  -   ,"  58,432,174 ",NULL,NULL,NULL
14KDS0026,GANESHA_BARAT_TB,110.82347,-6.80739,KOTA KUDUS,MC-KUDUS,CW-CJA-KUDEPARA,KUDUS,CENTRAL JAVA,  -   ,"  11,704,545 ",NULL,NULL,NULL
14KDS0027,SURUHAN_TB,110.82425,-6.81365,KOTA KUDUS,MC-KUDUS,CW-CJA-KUDEPARA,KUDUS,CENTRAL JAVA,  -   ,  -   ,NULL,NULL,NULL
14KDS0028,GRIBIG_MT,110.82404,-6.78703,GEBOG,MC-KUDUS,CW-CJA-KUDEPARA,KUDUS,CENTRAL JAVA,  -   ,  -   ,NULL,NULL,NULL
14KDS0029,KULON_KALI_CM,110.82500,-6.82936,JATI,MC-KUDUS,CW-CJA-KUDEPARA,KUDUS,CENTRAL JAVA,  -   ,"  8,710,903 ",NULL,NULL,NULL
